"page_name","page_id","id_var_native","name_var_native","year_native","month_native","origin_city","origin_region","origin_country","val","value_source","ors_type","ors_id","osm_id","osm_layer","city_name_ors","region_name_ors","country_name_ors","lon","lat","geometry_confidence","adr","distance_km","duration_min","from_lon_matrix","from_lat_matrix"
"Visit Kosice","140831155939489","page_content_activity_by_country_unique","Page content activity by city_unique","2021","10","Bruck an der Leitha",NULL,"Austria","1","Facebook Graph API","Point","101831933","101831933","locality","Bruck an der Leitha","Lower Austria","Austria","16.771563","48.026103","1","Bruck an der Leitha, Austria","488.75","289","16.771506","48.026122"
"Visit Kosice","140831155939489","page_content_activity_by_country_unique","Page content activity by city_unique","2021","2","Eckartsau",NULL,"Austria","1","Facebook Graph API","Point","101912441","101912441","locality","Eckartsau","Lower Austria","Austria","16.794953","48.143459","1","Eckartsau, Austria","515.33","312","16.79498","48.143484"
"Visit Kosice","140831155939489","page_content_activity_by_country_unique","Page content activity by city_unique","2021","1","Feldkirch",NULL,"Austria","3","Facebook Graph API","Point","101827453","101827453","locality","Feldkirch","Vorarlberg","Austria","9.586953","47.247465","1","Feldkirch, Austria","1166.34","676","9.58732","47.247519"
"Visit Kosice","140831155939489","page_content_activity_by_country_unique","Page content activity by city_unique","2021","4","Fohnsdorf",NULL,"Austria","1","Facebook Graph API","Point","101834241","101834241","locality","Fohnsdorf","Styria","Austria","14.678804","47.207515","1","Fohnsdorf, Austria","691.2","416","14.678825","47.207576"
"Visit Kosice","140831155939489","page_content_activity_by_country_unique","Page content activity by city_unique","2021","2","Fügen",NULL,"Austria","1","Facebook Graph API","Point","101787873","101787873","locality","Fügen","Tyrol","Austria","11.846386","47.340127","1","Fügen, Austria","981.38","576","11.846025","47.340762"
"Visit Kosice","140831155939489","page_content_activity_by_country_unique","Page content activity by city_unique","2021","1","Graz",NULL,"Austria","1","Facebook Graph API","Point","101748063","101748063","locality","Graz","Styria","Austria","15.432739","47.065852","1","Graz, Austria","629.81","395","15.432542","47.06584"
"Visit Kosice","140831155939489","page_content_activity_by_country_unique","Page content activity by city_unique","2021","2","Graz",NULL,"Austria","2","Facebook Graph API","Point","101748063","101748063","locality","Graz","Styria","Austria","15.432739","47.065852","1","Graz, Austria","629.81","395","15.432542","47.06584"
"Visit Kosice","140831155939489","page_content_activity_by_country_unique","Page content activity by city_unique","2021","4","Graz",NULL,"Austria","2","Facebook Graph API","Point","101748063","101748063","locality","Graz","Styria","Austria","15.432739","47.065852","1","Graz, Austria","629.81","395","15.432542","47.06584"
"Visit Kosice","140831155939489","page_content_activity_by_country_unique","Page content activity by city_unique","2021","3","Hainburg an der Donau",NULL,"Austria","1","Facebook Graph API","Point","101784521","101784521","locality","Hainburg","Lower Austria","Austria","16.9453","48.147538","1","Hainburg an der Donau, Austria","496.13","294","16.945277","48.147514"
"Visit Kosice","140831155939489","page_content_activity_by_country_unique","Page content activity by city_unique","2021","4","Innsbruck",NULL,"Austria","1","Facebook Graph API","Point","101748061","101748061","locality","Innsbruck","Tyrol","Austria","11.407851","47.272308","1","Innsbruck, Austria","1010.18","592","11.408088","47.272038"
"Visit Kosice","140831155939489","page_content_activity_by_country_unique","Page content activity by city_unique","2021","2","Korneuburg",NULL,"Austria","2","Facebook Graph API","Point","101754245","101754245","locality","Korneuburg","Lower Austria","Austria","16.332218","48.34253","1","Korneuburg, Austria","544.59","332","16.332461","48.34233"
"Visit Kosice","140831155939489","page_impressions_by_country_unique","Page impressions by city_unique","2021","6","Lauterach",NULL,"Austria","1","Facebook Graph API","Point","101827495","101827495","locality","Lauterach","Vorarlberg","Austria","9.725819","47.481719","1","Lauterach, Austria","1136.97","657","9.725814","47.48173"
"Visit Kosice","140831155939489","page_content_activity_by_country_unique","Page content activity by city_unique","2021","6","Lauterach",NULL,"Austria","1","Facebook Graph API","Point","101827495","101827495","locality","Lauterach","Vorarlberg","Austria","9.725819","47.481719","1","Lauterach, Austria","1136.97","657","9.725814","47.48173"
"Visit Kosice","140831155939489","page_content_activity_by_country_unique","Page content activity by city_unique","2021","9","Sankt Margarethen bei Knittelfeld",NULL,"Austria","1","Facebook Graph API","Point","101834225","101834225","locality","Knittelfeld","Styria","Austria","14.831471","47.215692","1","Sankt Margarethen bei Knittelfeld, Austria","679.42","409","14.831576","47.215791"
"Visit Kosice","140831155939489","page_content_activity_by_country_unique","Page content activity by city_unique","2021","2","Seefeld",NULL,"Austria","1","Facebook Graph API","Point","1193016273","1193016273","locality","Seefeld (Attersee)","Upper Austria","Austria","13.54486","47.83868","1","Seefeld, Austria","786.92","463","13.544879","47.838621"
"Visit Kosice","140831155939489","page_content_activity_by_country_unique","Page content activity by city_unique","2021","2","Stainach",NULL,"Austria","1","Facebook Graph API","Point","101787983","101787983","locality","Stainach","Styria","Austria","14.109709","47.53292","1","Stainach, Austria","737.77","456","14.109698","47.532915"
"Visit Kosice","140831155939489","page_content_activity_by_country_unique","Page content activity by city_unique","2021","2","Wien",NULL,"Austria","2","Facebook Graph API","Point","101748073","101748073","locality","Vienna","Vienna","Austria","16.348388","48.198674","1","Wien, Austria","531.52","326","16.348215","48.199264"
"Visit Kosice","140831155939489","page_content_activity_by_country_unique","Page content activity by city_unique","2021","3","Wien",NULL,"Austria","2","Facebook Graph API","Point","101748073","101748073","locality","Vienna","Vienna","Austria","16.348388","48.198674","1","Wien, Austria","531.52","326","16.348215","48.199264"
"Visit Kosice","140831155939489","page_content_activity_by_country_unique","Page content activity by city_unique","2021","4","Wien",NULL,"Austria","19","Facebook Graph API","Point","101748073","101748073","locality","Vienna","Vienna","Austria","16.348388","48.198674","1","Wien, Austria","531.52","326","16.348215","48.199264"
"Visit Kosice","140831155939489","page_impressions_by_country_unique","Page impressions by city_unique","2021","4","Wien",NULL,"Austria","9","Facebook Graph API","Point","101748073","101748073","locality","Vienna","Vienna","Austria","16.348388","48.198674","1","Wien, Austria","531.52","326","16.348215","48.199264"
"Visit Kosice","140831155939489","page_impressions_by_country_unique","Page impressions by city_unique","2021","5","Wien",NULL,"Austria","7","Facebook Graph API","Point","101748073","101748073","locality","Vienna","Vienna","Austria","16.348388","48.198674","1","Wien, Austria","531.52","326","16.348215","48.199264"
"Visit Kosice","140831155939489","page_content_activity_by_country_unique","Page content activity by city_unique","2021","5","Wien",NULL,"Austria","7","Facebook Graph API","Point","101748073","101748073","locality","Vienna","Vienna","Austria","16.348388","48.198674","1","Wien, Austria","531.52","326","16.348215","48.199264"
"Visit Kosice","140831155939489","page_content_activity_by_country_unique","Page content activity by city_unique","2021","11","Wien",NULL,"Austria","2","Facebook Graph API","Point","101748073","101748073","locality","Vienna","Vienna","Austria","16.348388","48.198674","1","Wien, Austria","531.52","326","16.348215","48.199264"
"Visit Kosice","140831155939489","page_content_activity_by_country_unique","Page content activity by city_unique","2021","12","Wien",NULL,"Austria","5","Facebook Graph API","Point","101748073","101748073","locality","Vienna","Vienna","Austria","16.348388","48.198674","1","Wien, Austria","531.52","326","16.348215","48.199264"
"Visit Kosice","140831155939489","page_impressions_by_country_unique","Page impressions by city_unique","2021","6","Benátky nad Jizerou",NULL,"Czechia","1","Facebook Graph API","Point","101824179","101824179","locality","Benátky nad Jizerou","Central Bohemian","Czechia","14.829254","50.288094","0.6","Benátky nad Jizerou, Czechia","690.04","490","14.829198","50.288135"
"Visit Kosice","140831155939489","page_content_activity_by_country_unique","Page content activity by city_unique","2021","6","Benátky nad Jizerou",NULL,"Czechia","1","Facebook Graph API","Point","101824179","101824179","locality","Benátky nad Jizerou","Central Bohemian","Czechia","14.829254","50.288094","0.6","Benátky nad Jizerou, Czechia","690.04","490","14.829198","50.288135"
"Visit Kosice","140831155939489","page_content_activity_by_country_unique","Page content activity by city_unique","2021","2","Bernartice",NULL,"Czechia","1","Facebook Graph API","Point","1126030629","1126030629","locality","Bernartice","South Bohemian","Czechia","14.38101","49.36889","0.6","Bernartice, Czechia","644.15","480","14.381079","49.368882"
"Visit Kosice","140831155939489","page_content_activity_by_country_unique","Page content activity by city_unique","2021","4","Bernartice",NULL,"Czechia","6","Facebook Graph API","Point","1126030629","1126030629","locality","Bernartice","South Bohemian","Czechia","14.38101","49.36889","0.6","Bernartice, Czechia","644.15","480","14.381079","49.368882"
"Visit Kosice","140831155939489","page_content_activity_by_country_unique","Page content activity by city_unique","2021","4","Bor",NULL,"Czechia","1","Facebook Graph API","Point","101826503","101826503","locality","Bor","Plzeň","Czechia","12.776141","49.710967","0.6","Bor, Czechia","803.59","534","12.776147","49.710932"
"Visit Kosice","140831155939489","page_content_activity_by_country_unique","Page content activity by city_unique","2021","2","Breclav",NULL,"Czechia","4","Facebook Graph API","Point","101831999","101831999","locality","Břeclav","South Moravian","Czechia","16.889078","48.758987","0.6","Breclav, Czechia","562.72","328","16.888654","48.758578"
"Visit Kosice","140831155939489","page_content_activity_by_country_unique","Page content activity by city_unique","2021","3","Breclav",NULL,"Czechia","2","Facebook Graph API","Point","101831999","101831999","locality","Břeclav","South Moravian","Czechia","16.889078","48.758987","0.6","Breclav, Czechia","562.72","328","16.888654","48.758578"
"Visit Kosice","140831155939489","page_content_activity_by_country_unique","Page content activity by city_unique","2021","1","Brno",NULL,"Czechia","1","Facebook Graph API","Point","101748109","101748109","locality","Brno","South Moravian","Czechia","16.61041","49.198531","0.6","Brno, Czechia","458.3","356","16.610044","49.198152"
"Visit Kosice","140831155939489","page_content_activity_by_country_unique","Page content activity by city_unique","2021","2","Brno",NULL,"Czechia","8","Facebook Graph API","Point","101748109","101748109","locality","Brno","South Moravian","Czechia","16.61041","49.198531","0.6","Brno, Czechia","458.3","356","16.610044","49.198152"
"Visit Kosice","140831155939489","page_impressions_by_country_unique","Page impressions by city_unique","2021","2","Brno",NULL,"Czechia","1664","Facebook Graph API","Point","101748109","101748109","locality","Brno","South Moravian","Czechia","16.61041","49.198531","0.6","Brno, Czechia","458.3","356","16.610044","49.198152"
"Visit Kosice","140831155939489","page_impressions_by_country_unique","Page impressions by city_unique","2021","4","Brno",NULL,"Czechia","9","Facebook Graph API","Point","101748109","101748109","locality","Brno","South Moravian","Czechia","16.61041","49.198531","0.6","Brno, Czechia","458.3","356","16.610044","49.198152"
"Visit Kosice","140831155939489","page_impressions_by_country_unique","Page impressions by city_unique","2021","5","Brno",NULL,"Czechia","15","Facebook Graph API","Point","101748109","101748109","locality","Brno","South Moravian","Czechia","16.61041","49.198531","0.6","Brno, Czechia","458.3","356","16.610044","49.198152"
"Visit Kosice","140831155939489","page_content_activity_by_country_unique","Page content activity by city_unique","2021","5","Brno",NULL,"Czechia","15","Facebook Graph API","Point","101748109","101748109","locality","Brno","South Moravian","Czechia","16.61041","49.198531","0.6","Brno, Czechia","458.3","356","16.610044","49.198152"
"Visit Kosice","140831155939489","page_content_activity_by_country_unique","Page content activity by city_unique","2021","10","Brno",NULL,"Czechia","1","Facebook Graph API","Point","101748109","101748109","locality","Brno","South Moravian","Czechia","16.61041","49.198531","0.6","Brno, Czechia","458.3","356","16.610044","49.198152"
"Visit Kosice","140831155939489","page_impressions_by_country_unique","Page impressions by city_unique","2021","11","Brno",NULL,"Czechia","14","Facebook Graph API","Point","101748109","101748109","locality","Brno","South Moravian","Czechia","16.61041","49.198531","0.6","Brno, Czechia","458.3","356","16.610044","49.198152"
"Visit Kosice","140831155939489","page_impressions_by_country_unique","Page impressions by city_unique","2021","2","Ceska Lipa",NULL,"Czechia","11","Facebook Graph API","Point","101823001","101823001","locality","Česká Lípa","Liberec","Czechia","14.535934","50.682405","0.6","Ceska Lipa, Czechia","765.09","526","14.535804","50.682401"
"Visit Kosice","140831155939489","page_content_activity_by_country_unique","Page content activity by city_unique","2021","2","Ceska Lipa",NULL,"Czechia","1","Facebook Graph API","Point","101823001","101823001","locality","Česká Lípa","Liberec","Czechia","14.535934","50.682405","0.6","Ceska Lipa, Czechia","765.09","526","14.535804","50.682401"
"Visit Kosice","140831155939489","page_impressions_by_country_unique","Page impressions by city_unique","2021","2","Ceske Budejovice",NULL,"Czechia","26","Facebook Graph API","Point","101748103","101748103","locality","Budweis","South Bohemian","Czechia","14.477586","48.977235","0.6","Ceske Budejovice, Czechia","724.25","476","14.477844","48.977244"
"Visit Kosice","140831155939489","page_content_activity_by_country_unique","Page content activity by city_unique","2021","10","Ceske Budejovice",NULL,"Czechia","1","Facebook Graph API","Point","101748103","101748103","locality","Budweis","South Bohemian","Czechia","14.477586","48.977235","0.6","Ceske Budejovice, Czechia","724.25","476","14.477844","48.977244"
"Visit Kosice","140831155939489","page_content_activity_by_country_unique","Page content activity by city_unique","2021","2","Dubnany",NULL,"Czechia","1","Facebook Graph API","Point","101781055","101781055","locality","Dubňany","South Moravian","Czechia","17.097348","48.916086","0.6","Dubnany, Czechia","422.15","329","17.097205","48.916542"
"Visit Kosice","140831155939489","page_content_activity_by_country_unique","Page content activity by city_unique","2021","3","Dvur Kralove nad Labem",NULL,"Czechia","5","Facebook Graph API","Point","101824249","101824249","locality","Dvůr Králové nad Labem","Hradec Králové","Czechia","15.812795","50.434356","0.6","Dvur Kralove nad Labem, Czechia","605","483","15.81293","50.434296"
"Visit Kosice","140831155939489","page_content_activity_by_country_unique","Page content activity by city_unique","2021","4","Dvur Kralove nad Labem",NULL,"Czechia","6","Facebook Graph API","Point","101824249","101824249","locality","Dvůr Králové nad Labem","Hradec Králové","Czechia","15.812795","50.434356","0.6","Dvur Kralove nad Labem, Czechia","605","483","15.81293","50.434296"
"Visit Kosice","140831155939489","page_content_activity_by_country_unique","Page content activity by city_unique","2021","4","Frýdek-Místek",NULL,"Czechia","1","Facebook Graph API","Point","101748127","101748127","locality","Frýdek-Místek","Moravian-Silesian","Czechia","18.348434","49.678504","0.6","Frýdek-Místek, Czechia","324.39","260","18.348947","49.678683"
"Visit Kosice","140831155939489","page_content_activity_by_country_unique","Page content activity by city_unique","2021","10","Frýdek-Místek",NULL,"Czechia","1","Facebook Graph API","Point","101748127","101748127","locality","Frýdek-Místek","Moravian-Silesian","Czechia","18.348434","49.678504","0.6","Frýdek-Místek, Czechia","324.39","260","18.348947","49.678683"
"Visit Kosice","140831155939489","page_content_activity_by_country_unique","Page content activity by city_unique","2021","12","Frýdek-Místek",NULL,"Czechia","4","Facebook Graph API","Point","101748127","101748127","locality","Frýdek-Místek","Moravian-Silesian","Czechia","18.348434","49.678504","0.6","Frýdek-Místek, Czechia","324.39","260","18.348947","49.678683"
"Visit Kosice","140831155939489","page_impressions_by_country_unique","Page impressions by city_unique","2021","6","Havirov",NULL,"Czechia","1","Facebook Graph API","Point","101748121","101748121","locality","Havířov","Moravian-Silesian","Czechia","18.440965","49.781706","0.6","Havirov, Czechia","324.2","270","18.441053","49.781638"
"Visit Kosice","140831155939489","page_content_activity_by_country_unique","Page content activity by city_unique","2021","6","Havirov",NULL,"Czechia","1","Facebook Graph API","Point","101748121","101748121","locality","Havířov","Moravian-Silesian","Czechia","18.440965","49.781706","0.6","Havirov, Czechia","324.2","270","18.441053","49.781638"
"Visit Kosice","140831155939489","page_content_activity_by_country_unique","Page content activity by city_unique","2021","2","Hradec Králové",NULL,"Czechia","1","Facebook Graph API","Point","101748133","101748133","locality","Hradec Králové","Hradec Králové","Czechia","15.8399","50.206544","0.6","Hradec Králové, Czechia","559.71","459","15.839568","50.206707"
"Visit Kosice","140831155939489","page_content_activity_by_country_unique","Page content activity by city_unique","2021","12","Jablonec nad Nisou",NULL,"Czechia","1","Facebook Graph API","Point","101822991","101822991","locality","Jablonec nad Nisou","Liberec","Czechia","15.165147","50.725208","0.6","Jablonec nad Nisou, Czechia","730.85","507","15.16512","50.725117"
"Visit Kosice","140831155939489","page_content_activity_by_country_unique","Page content activity by city_unique","2021","1","Kaplice",NULL,"Czechia","1","Facebook Graph API","Point","101782293","101782293","locality","Kaplice","South Bohemian","Czechia","14.489495","48.739386","0.6","Kaplice, Czechia","716.65","464","14.48937","48.739296"
"Visit Kosice","140831155939489","page_content_activity_by_country_unique","Page content activity by city_unique","2021","12","Kaznejov",NULL,"Czechia","4","Facebook Graph API","Point","101825221","101825221","locality","Kaznějov","Plzeň","Czechia","13.379604","49.894173","0.6","Kaznejov, Czechia","764.26","526","13.379474","49.894333"
"Visit Kosice","140831155939489","page_content_activity_by_country_unique","Page content activity by city_unique","2021","10","Kladno",NULL,"Czechia","1","Facebook Graph API","Point","101748131","101748131","locality","Kladno","Central Bohemian","Czechia","14.11218","50.138492","0.6","Kladno, Czechia","691.93","480","14.11215","50.13848"
"Visit Kosice","140831155939489","page_content_activity_by_country_unique","Page content activity by city_unique","2021","2","Klobuky",NULL,"Czechia","1","Facebook Graph API","Point","1126016533","1126016533","locality","Klobuky","Central Bohemian","Czechia","13.98748","50.29401","0.6","Klobuky, Czechia","711.43","493","13.987559","50.294016"
"Visit Kosice","140831155939489","page_content_activity_by_country_unique","Page content activity by city_unique","2021","10","Kobeřice u Brna",NULL,"Czechia","1","Facebook Graph API","Point","11926079","11926079","locality","Kobeřice u Brna","South Moravian","Czechia","16.89321","49.08516","0.6","Kobeřice u Brna, Czechia","443.55","346","16.897792","49.086547"
"Visit Kosice","140831155939489","page_content_activity_by_country_unique","Page content activity by city_unique","2021","11","Kobeřice u Brna",NULL,"Czechia","2","Facebook Graph API","Point","11926079","11926079","locality","Kobeřice u Brna","South Moravian","Czechia","16.89321","49.08516","0.6","Kobeřice u Brna, Czechia","443.55","346","16.897792","49.086547"
"Visit Kosice","140831155939489","page_content_activity_by_country_unique","Page content activity by city_unique","2021","10","Kourim",NULL,"Czechia","1","Facebook Graph API","Point","9803452659","9803452659","venue","Kouřim - Stará Kouřim","Central Bohemian","Czechia","14.989342","50.000094","0.8","Kourim, Czechia","640.35","469","14.990283","50.000455"
"Visit Kosice","140831155939489","page_content_activity_by_country_unique","Page content activity by city_unique","2021","2","Kralupy nad Vltavou",NULL,"Czechia","1","Facebook Graph API","Point","101841015","101841015","locality","Kralupy nad Vltavou","Central Bohemian","Czechia","14.316212","50.245732","0.6","Kralupy nad Vltavou, Czechia","703.1","494","14.31635","50.245829"
"Visit Kosice","140831155939489","page_content_activity_by_country_unique","Page content activity by city_unique","2021","4","Kromeriz",NULL,"Czechia","1","Facebook Graph API","Point","101831961","101831961","locality","Kroměříž","Zlín","Czechia","17.398333","49.29912","0.6","Kromeriz, Czechia","404.08","316","17.398259","49.299048"
"Visit Kosice","140831155939489","page_content_activity_by_country_unique","Page content activity by city_unique","2021","2","Liberec",NULL,"Czechia","1","Facebook Graph API","Point","101748147","101748147","locality","Liberec","Liberec","Czechia","15.058495","50.763071","0.6","Liberec, Czechia","720.63","495","15.058187","50.763811"
"Visit Kosice","140831155939489","page_content_activity_by_country_unique","Page content activity by city_unique","2021","3","Liberec",NULL,"Czechia","1","Facebook Graph API","Point","101748147","101748147","locality","Liberec","Liberec","Czechia","15.058495","50.763071","0.6","Liberec, Czechia","720.63","495","15.058187","50.763811"
"Visit Kosice","140831155939489","page_content_activity_by_country_unique","Page content activity by city_unique","2021","4","Litomerice",NULL,"Czechia","2","Facebook Graph API","Point","101841087","101841087","locality","Litoměřice","Ústecký","Czechia","14.127631","50.53623","0.6","Litomerice, Czechia","728.17","516","14.127784","50.53634"
"Visit Kosice","140831155939489","page_content_activity_by_country_unique","Page content activity by city_unique","2021","4","Melnik",NULL,"Czechia","1","Facebook Graph API","Point","101824199","101824199","locality","Mělník","Central Bohemian","Czechia","14.473546","50.359445","0.6","Melnik, Czechia","706.71","505","14.473538","50.359448"
"Visit Kosice","140831155939489","page_content_activity_by_country_unique","Page content activity by city_unique","2021","2","Mladá Boleslav",NULL,"Czechia","2","Facebook Graph API","Point","101841001","101841001","locality","Mladá Boleslav","Central Bohemian","Czechia","14.91097","50.420438","0.6","Mladá Boleslav, Czechia","708.8","504","14.910958","50.420441"
"Visit Kosice","140831155939489","page_content_activity_by_country_unique","Page content activity by city_unique","2021","3","Mladá Boleslav",NULL,"Czechia","1","Facebook Graph API","Point","101841001","101841001","locality","Mladá Boleslav","Central Bohemian","Czechia","14.91097","50.420438","0.6","Mladá Boleslav, Czechia","708.8","504","14.910958","50.420441"
"Visit Kosice","140831155939489","page_content_activity_by_country_unique","Page content activity by city_unique","2021","4","Nezvestice",NULL,"Czechia","1","Facebook Graph API","Point","101826471","101826471","locality","Nezvěstice","Plzeň","Czechia","13.522503","49.641144","0.6","Nezvestice, Czechia","756.3","513","13.522385","49.641112"
"Visit Kosice","140831155939489","page_content_activity_by_country_unique","Page content activity by city_unique","2021","4","Nymburk",NULL,"Czechia","1","Facebook Graph API","Point","101824207","101824207","locality","Nymburk","Central Bohemian","Czechia","15.040198","50.18498","0.6","Nymburk, Czechia","618.65","486","15.040204","50.184981"
"Visit Kosice","140831155939489","page_impressions_by_country_unique","Page impressions by city_unique","2021","2","Olomouc",NULL,"Czechia","37","Facebook Graph API","Point","101748129","101748129","locality","Olomouc","Olomouc","Czechia","17.260292","49.59372","0.6","Olomouc, Czechia","417.8","327","17.260978","49.593584"
"Visit Kosice","140831155939489","page_impressions_by_country_unique","Page impressions by city_unique","2021","2","Ostrava",NULL,"Czechia","296","Facebook Graph API","Point","1125415435","1125415435","localadmin","Ostrava","Moravian-Silesian","Czechia","18.28204","49.83465","0.6","Ostrava, Czechia","346.63","282","18.281806","49.834799"
"Visit Kosice","140831155939489","page_content_activity_by_country_unique","Page content activity by city_unique","2021","3","Ostrava",NULL,"Czechia","4","Facebook Graph API","Point","1125415435","1125415435","localadmin","Ostrava","Moravian-Silesian","Czechia","18.28204","49.83465","0.6","Ostrava, Czechia","346.63","282","18.281806","49.834799"
"Visit Kosice","140831155939489","page_impressions_by_country_unique","Page impressions by city_unique","2021","4","Ostrava",NULL,"Czechia","5","Facebook Graph API","Point","1125415435","1125415435","localadmin","Ostrava","Moravian-Silesian","Czechia","18.28204","49.83465","0.6","Ostrava, Czechia","346.63","282","18.281806","49.834799"
"Visit Kosice","140831155939489","page_content_activity_by_country_unique","Page content activity by city_unique","2021","4","Ostrava",NULL,"Czechia","6","Facebook Graph API","Point","1125415435","1125415435","localadmin","Ostrava","Moravian-Silesian","Czechia","18.28204","49.83465","0.6","Ostrava, Czechia","346.63","282","18.281806","49.834799"
"Visit Kosice","140831155939489","page_content_activity_by_country_unique","Page content activity by city_unique","2021","10","Ostrava",NULL,"Czechia","1","Facebook Graph API","Point","1125415435","1125415435","localadmin","Ostrava","Moravian-Silesian","Czechia","18.28204","49.83465","0.6","Ostrava, Czechia","346.63","282","18.281806","49.834799"
"Visit Kosice","140831155939489","page_impressions_by_country_unique","Page impressions by city_unique","2021","11","Ostrava",NULL,"Czechia","2","Facebook Graph API","Point","1125415435","1125415435","localadmin","Ostrava","Moravian-Silesian","Czechia","18.28204","49.83465","0.6","Ostrava, Czechia","346.63","282","18.281806","49.834799"
"Visit Kosice","140831155939489","page_impressions_by_country_unique","Page impressions by city_unique","2021","1","Pardubice",NULL,"Czechia","27","Facebook Graph API","Point","101748115","101748115","locality","Pardubice","Pardubice","Czechia","15.76788","50.034889","0.6","Pardubice, Czechia","556.78","461","15.767763","50.035252"
"Visit Kosice","140831155939489","page_content_activity_by_country_unique","Page content activity by city_unique","2021","2","Pardubice",NULL,"Czechia","1","Facebook Graph API","Point","101748115","101748115","locality","Pardubice","Pardubice","Czechia","15.76788","50.034889","0.6","Pardubice, Czechia","556.78","461","15.767763","50.035252"
"Visit Kosice","140831155939489","page_impressions_by_country_unique","Page impressions by city_unique","2021","2","Pardubice",NULL,"Czechia","73","Facebook Graph API","Point","101748115","101748115","locality","Pardubice","Pardubice","Czechia","15.76788","50.034889","0.6","Pardubice, Czechia","556.78","461","15.767763","50.035252"
"Visit Kosice","140831155939489","page_content_activity_by_country_unique","Page content activity by city_unique","2021","10","Pardubice",NULL,"Czechia","1","Facebook Graph API","Point","101748115","101748115","locality","Pardubice","Pardubice","Czechia","15.76788","50.034889","0.6","Pardubice, Czechia","556.78","461","15.767763","50.035252"
"Visit Kosice","140831155939489","page_impressions_by_country_unique","Page impressions by city_unique","2021","2","Plzen",NULL,"Czechia","259","Facebook Graph API","Point","101748111","101748111","locality","Pilsen","Plzeň","Czechia","13.375817","49.734736","0.6","Plzen, Czechia","752.56","513","13.375849","49.734746"
"Visit Kosice","140831155939489","page_content_activity_by_country_unique","Page content activity by city_unique","2021","2","Plzen",NULL,"Czechia","6","Facebook Graph API","Point","101748111","101748111","locality","Pilsen","Plzeň","Czechia","13.375817","49.734736","0.6","Plzen, Czechia","752.56","513","13.375849","49.734746"
"Visit Kosice","140831155939489","page_content_activity_by_country_unique","Page content activity by city_unique","2021","3","Plzen",NULL,"Czechia","6","Facebook Graph API","Point","101748111","101748111","locality","Pilsen","Plzeň","Czechia","13.375817","49.734736","0.6","Plzen, Czechia","752.56","513","13.375849","49.734746"
"Visit Kosice","140831155939489","page_content_activity_by_country_unique","Page content activity by city_unique","2021","1","Postoloprty",NULL,"Czechia","1","Facebook Graph API","Point","101824291","101824291","locality","Postoloprty","Ústecký","Czechia","13.69551","50.359744","0.6","Postoloprty, Czechia","734.22","512","13.695344","50.360005"
"Visit Kosice","140831155939489","page_impressions_by_country_unique","Page impressions by city_unique","2021","1","Prague",NULL,"Czechia","554","Facebook Graph API","Point","101748113","101748113","locality","Prague","Prague","Czechia","14.460249","50.06694","0.6","Prague, Czechia","656.75","458","14.460431","50.066987"
"Visit Kosice","140831155939489","page_content_activity_by_country_unique","Page content activity by city_unique","2021","1","Prague",NULL,"Czechia","39","Facebook Graph API","Point","101748113","101748113","locality","Prague","Prague","Czechia","14.460249","50.06694","0.6","Prague, Czechia","656.75","458","14.460431","50.066987"
"Visit Kosice","140831155939489","page_impressions_by_country_unique","Page impressions by city_unique","2021","2","Prague",NULL,"Czechia","6499","Facebook Graph API","Point","101748113","101748113","locality","Prague","Prague","Czechia","14.460249","50.06694","0.6","Prague, Czechia","656.75","458","14.460431","50.066987"
"Visit Kosice","140831155939489","page_content_activity_by_country_unique","Page content activity by city_unique","2021","2","Prague",NULL,"Czechia","73","Facebook Graph API","Point","101748113","101748113","locality","Prague","Prague","Czechia","14.460249","50.06694","0.6","Prague, Czechia","656.75","458","14.460431","50.066987"
"Visit Kosice","140831155939489","page_impressions_by_country_unique","Page impressions by city_unique","2021","3","Prague",NULL,"Czechia","740","Facebook Graph API","Point","101748113","101748113","locality","Prague","Prague","Czechia","14.460249","50.06694","0.6","Prague, Czechia","656.75","458","14.460431","50.066987"
"Visit Kosice","140831155939489","page_content_activity_by_country_unique","Page content activity by city_unique","2021","3","Prague",NULL,"Czechia","60","Facebook Graph API","Point","101748113","101748113","locality","Prague","Prague","Czechia","14.460249","50.06694","0.6","Prague, Czechia","656.75","458","14.460431","50.066987"
"Visit Kosice","140831155939489","page_impressions_by_country_unique","Page impressions by city_unique","2021","4","Prague",NULL,"Czechia","769","Facebook Graph API","Point","101748113","101748113","locality","Prague","Prague","Czechia","14.460249","50.06694","0.6","Prague, Czechia","656.75","458","14.460431","50.066987"
"Visit Kosice","140831155939489","page_content_activity_by_country_unique","Page content activity by city_unique","2021","4","Prague",NULL,"Czechia","35","Facebook Graph API","Point","101748113","101748113","locality","Prague","Prague","Czechia","14.460249","50.06694","0.6","Prague, Czechia","656.75","458","14.460431","50.066987"
"Visit Kosice","140831155939489","page_impressions_by_country_unique","Page impressions by city_unique","2021","5","Prague",NULL,"Czechia","1021","Facebook Graph API","Point","101748113","101748113","locality","Prague","Prague","Czechia","14.460249","50.06694","0.6","Prague, Czechia","656.75","458","14.460431","50.066987"
"Visit Kosice","140831155939489","page_content_activity_by_country_unique","Page content activity by city_unique","2021","5","Prague",NULL,"Czechia","1021","Facebook Graph API","Point","101748113","101748113","locality","Prague","Prague","Czechia","14.460249","50.06694","0.6","Prague, Czechia","656.75","458","14.460431","50.066987"
"Visit Kosice","140831155939489","page_content_activity_by_country_unique","Page content activity by city_unique","2021","6","Prague",NULL,"Czechia","177","Facebook Graph API","Point","101748113","101748113","locality","Prague","Prague","Czechia","14.460249","50.06694","0.6","Prague, Czechia","656.75","458","14.460431","50.066987"
"Visit Kosice","140831155939489","page_impressions_by_country_unique","Page impressions by city_unique","2021","6","Prague",NULL,"Czechia","177","Facebook Graph API","Point","101748113","101748113","locality","Prague","Prague","Czechia","14.460249","50.06694","0.6","Prague, Czechia","656.75","458","14.460431","50.066987"
"Visit Kosice","140831155939489","page_impressions_by_country_unique","Page impressions by city_unique","2021","10","Prague",NULL,"Czechia","208","Facebook Graph API","Point","101748113","101748113","locality","Prague","Prague","Czechia","14.460249","50.06694","0.6","Prague, Czechia","656.75","458","14.460431","50.066987"
"Visit Kosice","140831155939489","page_content_activity_by_country_unique","Page content activity by city_unique","2021","10","Prague",NULL,"Czechia","28","Facebook Graph API","Point","101748113","101748113","locality","Prague","Prague","Czechia","14.460249","50.06694","0.6","Prague, Czechia","656.75","458","14.460431","50.066987"
"Visit Kosice","140831155939489","page_impressions_by_country_unique","Page impressions by city_unique","2021","11","Prague",NULL,"Czechia","575","Facebook Graph API","Point","101748113","101748113","locality","Prague","Prague","Czechia","14.460249","50.06694","0.6","Prague, Czechia","656.75","458","14.460431","50.066987"
"Visit Kosice","140831155939489","page_content_activity_by_country_unique","Page content activity by city_unique","2021","11","Prague",NULL,"Czechia","19","Facebook Graph API","Point","101748113","101748113","locality","Prague","Prague","Czechia","14.460249","50.06694","0.6","Prague, Czechia","656.75","458","14.460431","50.066987"
"Visit Kosice","140831155939489","page_impressions_by_country_unique","Page impressions by city_unique","2021","12","Prague",NULL,"Czechia","841","Facebook Graph API","Point","101748113","101748113","locality","Prague","Prague","Czechia","14.460249","50.06694","0.6","Prague, Czechia","656.75","458","14.460431","50.066987"
"Visit Kosice","140831155939489","page_content_activity_by_country_unique","Page content activity by city_unique","2021","12","Prague",NULL,"Czechia","15","Facebook Graph API","Point","101748113","101748113","locality","Prague","Prague","Czechia","14.460249","50.06694","0.6","Prague, Czechia","656.75","458","14.460431","50.066987"
"Visit Kosice","140831155939489","page_content_activity_by_country_unique","Page content activity by city_unique","2021","4","Prerov",NULL,"Czechia","16","Facebook Graph API","Point","101826569","101826569","locality","Přerov","Olomouc","Czechia","17.448672","49.455761","0.6","Prerov, Czechia","404.09","318","17.448633","49.455797"
"Visit Kosice","140831155939489","page_content_activity_by_country_unique","Page content activity by city_unique","2021","4","Pribram",NULL,"Czechia","3","Facebook Graph API","Point","101826619","101826619","locality","Příbram","Central Bohemian","Czechia","14.001386","49.687775","0.6","Pribram, Czechia","706.63","492","14.001434","49.687778"
"Visit Kosice","140831155939489","page_content_activity_by_country_unique","Page content activity by city_unique","2021","1","Prostejov",NULL,"Czechia","1","Facebook Graph API","Point","101840991","101840991","locality","Prostějov","Olomouc","Czechia","17.114327","49.474313","0.6","Prostejov, Czechia","430.82","332","17.113733","49.474388"
"Visit Kosice","140831155939489","page_content_activity_by_country_unique","Page content activity by city_unique","2021","1","Rokycany",NULL,"Czechia","1","Facebook Graph API","Point","101840869","101840869","locality","Rokycany","Plzeň","Czechia","13.598429","49.739117","0.6","Rokycany, Czechia","736.16","500","13.598041","49.738795"
"Visit Kosice","140831155939489","page_content_activity_by_country_unique","Page content activity by city_unique","2021","2","Roudnice nad Labem",NULL,"Czechia","1","Facebook Graph API","Point","101824309","101824309","locality","Roudnice nad Labem","Ústecký","Czechia","14.254064","50.424485","0.6","Roudnice nad Labem, Czechia","708.64","505","14.254755","50.424287"
"Visit Kosice","140831155939489","page_content_activity_by_country_unique","Page content activity by city_unique","2021","10","Roztoky",NULL,"Czechia","1","Facebook Graph API","Point","101841019","101841019","locality","Roztoky","Central Bohemian","Czechia","14.392767","50.164026","0.6","Roztoky, Czechia","675.92","487","14.392763","50.164055"
"Visit Kosice","140831155939489","page_content_activity_by_country_unique","Page content activity by city_unique","2021","4","Rudná",NULL,"Czechia","1","Facebook Graph API","Point","101825707","101825707","locality","Rudná","Central Bohemian","Czechia","14.225088","50.029005","0.6","Rudná, Czechia","675.33","467","14.225067","50.029042"
"Visit Kosice","140831155939489","page_content_activity_by_country_unique","Page content activity by city_unique","2021","2","Sardice",NULL,"Czechia","1","Facebook Graph API","Point","101781125","101781125","locality","Šardice","South Moravian","Czechia","17.026178","48.965056","0.6","Sardice, Czechia","425.16","330","17.025805","48.965045"
"Visit Kosice","140831155939489","page_content_activity_by_country_unique","Page content activity by city_unique","2021","1","Sezemice",NULL,"Czechia","1","Facebook Graph API","Point","101825263","101825263","locality","Sezemice","Pardubice","Czechia","15.852375","50.065949","0.6","Sezemice, Czechia","549.66","444","15.852477","50.065879"
"Visit Kosice","140831155939489","page_content_activity_by_country_unique","Page content activity by city_unique","2021","2","Sloup v Čechách",NULL,"Czechia","2","Facebook Graph API","Point","4516290","4516290","street","Na Čechách","Ústecký","Czechia","14.171384","50.78586","1","Sloup v Čechách, Czechia","774.96","545","14.171384","50.78586"
"Visit Kosice","140831155939489","page_content_activity_by_country_unique","Page content activity by city_unique","2021","2","Stechovice",NULL,"Czechia","1","Facebook Graph API","Point","1125879069","1125879069","locality","Štěchovice","Central Bohemian","Czechia","14.40543","49.85109","0.6","Stechovice, Czechia","670.3","476","14.405445","49.851102"
"Visit Kosice","140831155939489","page_content_activity_by_country_unique","Page content activity by city_unique","2021","12","Stechovice",NULL,"Czechia","4","Facebook Graph API","Point","1125879069","1125879069","locality","Štěchovice","Central Bohemian","Czechia","14.40543","49.85109","0.6","Stechovice, Czechia","670.3","476","14.405445","49.851102"
"Visit Kosice","140831155939489","page_content_activity_by_country_unique","Page content activity by city_unique","2021","2","Stod",NULL,"Czechia","1","Facebook Graph API","Point","101826445","101826445","locality","Stod","Plzeň","Czechia","13.166379","49.639079","0.6","Stod, Czechia","774.19","523","13.166119","49.639023"
"Visit Kosice","140831155939489","page_content_activity_by_country_unique","Page content activity by city_unique","2021","12","Strazov",NULL,"Czechia","1","Facebook Graph API","Point","1125794445","1125794445","locality","Strážov","Plzeň","Czechia","13.24623","49.30326","0.6","Strazov, Czechia","802.17","561","13.246238","49.30324"
"Visit Kosice","140831155939489","page_content_activity_by_country_unique","Page content activity by city_unique","2021","1","Tábor",NULL,"Czechia","4","Facebook Graph API","Point","101841973","101841973","locality","Tábor","South Bohemian","Czechia","14.678012","49.412229","0.6","Tábor, Czechia","618.37","456","14.678248","49.412357"
"Visit Kosice","140831155939489","page_content_activity_by_country_unique","Page content activity by city_unique","2021","1","Teplice",NULL,"Czechia","3","Facebook Graph API","Point","101748135","101748135","locality","Teplice","Ústecký","Czechia","13.837687","50.646819","0.6","Teplice, Czechia","751.49","529","13.837757","50.646823"
"Visit Kosice","140831155939489","page_content_activity_by_country_unique","Page content activity by city_unique","2021","2","Teplice",NULL,"Czechia","6","Facebook Graph API","Point","101748135","101748135","locality","Teplice","Ústecký","Czechia","13.837687","50.646819","0.6","Teplice, Czechia","751.49","529","13.837757","50.646823"
"Visit Kosice","140831155939489","page_content_activity_by_country_unique","Page content activity by city_unique","2021","4","Vratimov",NULL,"Czechia","1","Facebook Graph API","Point","101840937","101840937","locality","Vratimov","Moravian-Silesian","Czechia","18.314883","49.768071","0.6","Vratimov, Czechia","334.82","274","18.314888","49.768199"
"Visit Kosice","140831155939489","page_content_activity_by_country_unique","Page content activity by city_unique","2021","10","Vrchlabí",NULL,"Czechia","1","Facebook Graph API","Point","101841085","101841085","locality","Vrchlabí","Hradec Králové","Czechia","15.613342","50.618723","0.6","Vrchlabí, Czechia","664.37","491","15.613019","50.618724"
"Visit Kosice","140831155939489","page_content_activity_by_country_unique","Page content activity by city_unique","2021","2","Zelenec",NULL,"Czechia","1","Facebook Graph API","Point","101825637","101825637","locality","Zeleneč","Central Bohemian","Czechia","14.661792","50.131731","0.6","Zelenec, Czechia","665.35","476","14.661593","50.131871"
"Visit Kosice","140831155939489","page_content_activity_by_country_unique","Page content activity by city_unique","2021","3","Bátonyterenye",NULL,"Hungary","1","Facebook Graph API","Point","101784729","101784729","locality","Bátonyterenye","Nógrád","Hungary","19.819938","47.981014","1","Bátonyterenye, Hungary","248.04","155","19.819595","47.980698"
"Visit Kosice","140831155939489","page_content_activity_by_country_unique","Page content activity by city_unique","2021","1","Budapest",NULL,"Hungary","5","Facebook Graph API","Point","101751703","101751703","locality","Budapest","Budapest","Hungary","19.092281","47.516581","1","Budapest, Hungary","256.91","158","19.092419","47.516476"
"Visit Kosice","140831155939489","page_impressions_by_country_unique","Page impressions by city_unique","2021","2","Budapest",NULL,"Hungary","16978","Facebook Graph API","Point","101751703","101751703","locality","Budapest","Budapest","Hungary","19.092281","47.516581","1","Budapest, Hungary","256.91","158","19.092419","47.516476"
"Visit Kosice","140831155939489","page_content_activity_by_country_unique","Page content activity by city_unique","2021","2","Budapest",NULL,"Hungary","74","Facebook Graph API","Point","101751703","101751703","locality","Budapest","Budapest","Hungary","19.092281","47.516581","1","Budapest, Hungary","256.91","158","19.092419","47.516476"
"Visit Kosice","140831155939489","page_content_activity_by_country_unique","Page content activity by city_unique","2021","3","Budapest",NULL,"Hungary","1","Facebook Graph API","Point","101751703","101751703","locality","Budapest","Budapest","Hungary","19.092281","47.516581","1","Budapest, Hungary","256.91","158","19.092419","47.516476"
"Visit Kosice","140831155939489","page_impressions_by_country_unique","Page impressions by city_unique","2021","4","Budapest",NULL,"Hungary","5","Facebook Graph API","Point","101751703","101751703","locality","Budapest","Budapest","Hungary","19.092281","47.516581","1","Budapest, Hungary","256.91","158","19.092419","47.516476"
"Visit Kosice","140831155939489","page_content_activity_by_country_unique","Page content activity by city_unique","2021","4","Budapest",NULL,"Hungary","14","Facebook Graph API","Point","101751703","101751703","locality","Budapest","Budapest","Hungary","19.092281","47.516581","1","Budapest, Hungary","256.91","158","19.092419","47.516476"
"Visit Kosice","140831155939489","page_content_activity_by_country_unique","Page content activity by city_unique","2021","5","Budapest",NULL,"Hungary","279","Facebook Graph API","Point","101751703","101751703","locality","Budapest","Budapest","Hungary","19.092281","47.516581","1","Budapest, Hungary","256.91","158","19.092419","47.516476"
"Visit Kosice","140831155939489","page_impressions_by_country_unique","Page impressions by city_unique","2021","5","Budapest",NULL,"Hungary","279","Facebook Graph API","Point","101751703","101751703","locality","Budapest","Budapest","Hungary","19.092281","47.516581","1","Budapest, Hungary","256.91","158","19.092419","47.516476"
"Visit Kosice","140831155939489","page_impressions_by_country_unique","Page impressions by city_unique","2021","7","Budapest",NULL,"Hungary","3660","Facebook Graph API","Point","101751703","101751703","locality","Budapest","Budapest","Hungary","19.092281","47.516581","1","Budapest, Hungary","256.91","158","19.092419","47.516476"
"Visit Kosice","140831155939489","page_content_activity_by_country_unique","Page content activity by city_unique","2021","7","Budapest",NULL,"Hungary","3660","Facebook Graph API","Point","101751703","101751703","locality","Budapest","Budapest","Hungary","19.092281","47.516581","1","Budapest, Hungary","256.91","158","19.092419","47.516476"
"Visit Kosice","140831155939489","page_impressions_by_country_unique","Page impressions by city_unique","2021","11","Budapest",NULL,"Hungary","4","Facebook Graph API","Point","101751703","101751703","locality","Budapest","Budapest","Hungary","19.092281","47.516581","1","Budapest, Hungary","256.91","158","19.092419","47.516476"
"Visit Kosice","140831155939489","page_content_activity_by_country_unique","Page content activity by city_unique","2021","12","Budapest",NULL,"Hungary","1","Facebook Graph API","Point","101751703","101751703","locality","Budapest","Budapest","Hungary","19.092281","47.516581","1","Budapest, Hungary","256.91","158","19.092419","47.516476"
"Visit Kosice","140831155939489","page_impressions_by_country_unique","Page impressions by city_unique","2021","12","Budapest",NULL,"Hungary","5","Facebook Graph API","Point","101751703","101751703","locality","Budapest","Budapest","Hungary","19.092281","47.516581","1","Budapest, Hungary","256.91","158","19.092419","47.516476"
"Visit Kosice","140831155939489","page_content_activity_by_country_unique","Page content activity by city_unique","2021","2","Debrecen",NULL,"Hungary","2","Facebook Graph API","Point","101751717","101751717","locality","Debrecen","Hajdú-Bihar","Hungary","21.628133","47.533282","1","Debrecen, Hungary","190.86","130","21.627724","47.533328"
"Visit Kosice","140831155939489","page_impressions_by_country_unique","Page impressions by city_unique","2021","2","Debrecen",NULL,"Hungary","1060","Facebook Graph API","Point","101751717","101751717","locality","Debrecen","Hajdú-Bihar","Hungary","21.628133","47.533282","1","Debrecen, Hungary","190.86","130","21.627724","47.533328"
"Visit Kosice","140831155939489","page_content_activity_by_country_unique","Page content activity by city_unique","2021","3","Dunakeszi",NULL,"Hungary","4","Facebook Graph API","Point","101754535","101754535","locality","Dunakeszi","Pest","Hungary","19.141941","47.632242","1","Dunakeszi, Hungary","251.47","161","19.141968","47.632297"
"Visit Kosice","140831155939489","page_content_activity_by_country_unique","Page content activity by city_unique","2021","2","Eger",NULL,"Hungary","1","Facebook Graph API","Point","101751719","101751719","locality","Erlau","Heves","Hungary","20.377592","47.897133","1","Eger, Hungary","160.51","117","20.37645","47.89684"
"Visit Kosice","140831155939489","page_content_activity_by_country_unique","Page content activity by city_unique","2021","2","Fonyód",NULL,"Hungary","1","Facebook Graph API","Point","101834399","101834399","locality","Fonyód","Somogy","Hungary","17.551656","46.742322","1","Fonyód, Hungary","437.01","259","17.551798","46.742351"
"Visit Kosice","140831155939489","page_content_activity_by_country_unique","Page content activity by city_unique","2021","12","Görbeháza",NULL,"Hungary","1","Facebook Graph API","Point","101784651","101784651","locality","Görbeháza","Hajdú-Bihar","Hungary","21.233974","47.823629","1","Görbeháza, Hungary","142.57","97","21.233854","47.823519"
"Visit Kosice","140831155939489","page_impressions_by_country_unique","Page impressions by city_unique","2021","2","Gyor",NULL,"Hungary","107","Facebook Graph API","Point","101751711","101751711","locality","Gyor","Gyor-Moson-Sopron","Hungary","17.643296","47.683452","1","Gyor, Hungary","408.18","247","17.643307","47.683437"
"Visit Kosice","140831155939489","page_content_activity_by_country_unique","Page content activity by city_unique","2021","2","Jászberény",NULL,"Hungary","1","Facebook Graph API","Point","101786941","101786941","locality","Jászberény","Jász-Nagykun-Szolnok","Hungary","19.910226","47.501745","1","Jászberény, Hungary","200.37","152","19.910137","47.501909"
"Visit Kosice","140831155939489","page_content_activity_by_country_unique","Page content activity by city_unique","2021","2","Kazincbarcika",NULL,"Hungary","1","Facebook Graph API","Point","101833419","101833419","locality","Kazincbarcika","Borsod-Abauj Zemplen","Hungary","20.622719","48.252733","1","Kazincbarcika, Hungary","104.17","83","20.62278","48.252704"
"Visit Kosice","140831155939489","page_content_activity_by_country_unique","Page content activity by city_unique","2021","2","Kecskemét",NULL,"Hungary","1","Facebook Graph API","Point","101751685","101751685","locality","Kecskemét","Bács-Kiskun","Hungary","19.693312","46.903549","1","Kecskemét, Hungary","333.93","205","19.693209","46.903747"
"Visit Kosice","140831155939489","page_impressions_by_country_unique","Page impressions by city_unique","2021","2","Miskolc",NULL,"Hungary","522","Facebook Graph API","Point","101751725","101751725","locality","Miskolc","Borsod-Abauj Zemplen","Hungary","20.796365","48.106487","1","Miskolc, Hungary","86.79","67","20.796195","48.106466"
"Visit Kosice","140831155939489","page_content_activity_by_country_unique","Page content activity by city_unique","2021","2","Miskolc",NULL,"Hungary","5","Facebook Graph API","Point","101751725","101751725","locality","Miskolc","Borsod-Abauj Zemplen","Hungary","20.796365","48.106487","1","Miskolc, Hungary","86.79","67","20.796195","48.106466"
"Visit Kosice","140831155939489","page_impressions_by_country_unique","Page impressions by city_unique","2021","4","Miskolc",NULL,"Hungary","5","Facebook Graph API","Point","101751725","101751725","locality","Miskolc","Borsod-Abauj Zemplen","Hungary","20.796365","48.106487","1","Miskolc, Hungary","86.79","67","20.796195","48.106466"
"Visit Kosice","140831155939489","page_content_activity_by_country_unique","Page content activity by city_unique","2021","4","Miskolc",NULL,"Hungary","4","Facebook Graph API","Point","101751725","101751725","locality","Miskolc","Borsod-Abauj Zemplen","Hungary","20.796365","48.106487","1","Miskolc, Hungary","86.79","67","20.796195","48.106466"
"Visit Kosice","140831155939489","page_content_activity_by_country_unique","Page content activity by city_unique","2021","2","Mórahalom",NULL,"Hungary","1","Facebook Graph API","Point","101790463","101790463","locality","Mórahalom","Csongrád","Hungary","19.884867","46.217324","1","Mórahalom, Hungary","431.72","253","19.88439","46.217348"
"Visit Kosice","140831155939489","page_impressions_by_country_unique","Page impressions by city_unique","2021","6","Nagyszénás",NULL,"Hungary","1","Facebook Graph API","Point","101789417","101789417","locality","Nagyszénás","Bekes","Hungary","20.671338","46.670664","1","Nagyszénás, Hungary","296.66","255","20.671312","46.670557"
"Visit Kosice","140831155939489","page_content_activity_by_country_unique","Page content activity by city_unique","2021","6","Nagyszénás",NULL,"Hungary","1","Facebook Graph API","Point","101789417","101789417","locality","Nagyszénás","Bekes","Hungary","20.671338","46.670664","1","Nagyszénás, Hungary","296.66","255","20.671312","46.670557"
"Visit Kosice","140831155939489","page_content_activity_by_country_unique","Page content activity by city_unique","2021","2","Nyíregyháza",NULL,"Hungary","3","Facebook Graph API","Point","101751721","101751721","locality","Nyíregyháza","Szabolcs-Szatmár-Bereg","Hungary","21.721436","47.953171","1","Nyíregyháza, Hungary","191.17","126","21.721629","47.953114"
"Visit Kosice","140831155939489","page_content_activity_by_country_unique","Page content activity by city_unique","2021","2","Ostoros",NULL,"Hungary","1","Facebook Graph API","Point","101784673","101784673","locality","Ostoros","Heves","Hungary","20.433844","47.864035","1","Ostoros, Hungary","153.4","110","20.434415","47.864837"
"Visit Kosice","140831155939489","page_content_activity_by_country_unique","Page content activity by city_unique","2021","3","Ostoros",NULL,"Hungary","1","Facebook Graph API","Point","101784673","101784673","locality","Ostoros","Heves","Hungary","20.433844","47.864035","1","Ostoros, Hungary","153.4","110","20.434415","47.864837"
"Visit Kosice","140831155939489","page_content_activity_by_country_unique","Page content activity by city_unique","2021","10","Pálháza",NULL,"Hungary","1","Facebook Graph API","Point","101781355","101781355","locality","Pálháza","Borsod-Abauj Zemplen","Hungary","21.50885","48.471774","1","Pálháza, Hungary","37.93","49","21.50895","48.471677"
"Visit Kosice","140831155939489","page_impressions_by_country_unique","Page impressions by city_unique","2021","2","Pécs",NULL,"Hungary","713","Facebook Graph API","Point","101751663","101751663","locality","Pécs","Baranya","Hungary","18.226387","46.074733","1","Pécs, Hungary","505.53","302","18.226389","46.074661"
"Visit Kosice","140831155939489","page_content_activity_by_country_unique","Page content activity by city_unique","2021","2","Pécs",NULL,"Hungary","2","Facebook Graph API","Point","101751663","101751663","locality","Pécs","Baranya","Hungary","18.226387","46.074733","1","Pécs, Hungary","505.53","302","18.226389","46.074661"
"Visit Kosice","140831155939489","page_content_activity_by_country_unique","Page content activity by city_unique","2021","2","Siófok",NULL,"Hungary","2","Facebook Graph API","Point","101834385","101834385","locality","Siófok","Somogy","Hungary","18.059246","46.905242","1","Siófok, Hungary","389.41","233","18.05903","46.905088"
"Visit Kosice","140831155939489","page_impressions_by_country_unique","Page impressions by city_unique","2021","2","Szeged",NULL,"Hungary","1207","Facebook Graph API","Point","101751681","101751681","locality","Szegedin","Csongrád","Hungary","20.141016","46.256116","1","Szeged, Hungary","420.24","251","20.14089","46.256167"
"Visit Kosice","140831155939489","page_impressions_by_country_unique","Page impressions by city_unique","2021","2","Székesfehérvár",NULL,"Hungary","77","Facebook Graph API","Point","101751699","101751699","locality","Székesfehérvár","Fejér","Hungary","18.416422","47.19314","1","Székesfehérvár, Hungary","346.25","217","18.416347","47.193119"
"Visit Kosice","140831155939489","page_content_activity_by_country_unique","Page content activity by city_unique","2021","2","Szolnok",NULL,"Hungary","1","Facebook Graph API","Point","85684891","85684891","region","Jász-Nagykun-Szolnok","Jász-Nagykun-Szolnok","Hungary","20.488031","47.177442","0.3","Szolnok, Hungary","223.23","183","20.486829","47.17948"
"Visit Kosice","140831155939489","page_content_activity_by_country_unique","Page content activity by city_unique","2021","2","Tatabánya",NULL,"Hungary","1","Facebook Graph API","Point","101751707","101751707","locality","Tatabánya","Komárom-Esztergom","Hungary","18.395146","47.576439","1","Tatabánya, Hungary","350.29","215","18.395322","47.576432"
"Visit Kosice","140831155939489","page_content_activity_by_country_unique","Page content activity by city_unique","2021","1","Tornyosnémeti",NULL,"Hungary","1","Facebook Graph API","Point","1209515943","1209515943","locality","Tornyosnemeti","n/a","Hungary","21.26667","48.51667","1","Tornyosnémeti, Hungary","26.66","29","21.263773","48.517629"
"Visit Kosice","140831155939489","page_impressions_by_country_unique","Page impressions by city_unique","2021","2","Białystok",NULL,"Poland","91","Facebook Graph API","Point","101752255","101752255","locality","Bialystok","Podlaskie","Poland","23.173944","53.138198","1","Białystok, Poland","707.83","554","23.174032","53.138317"
"Visit Kosice","140831155939489","page_impressions_by_country_unique","Page impressions by city_unique","2021","2","Bydgoszcz",NULL,"Poland","177","Facebook Graph API","Point","101752243","101752243","locality","Bydgoszcz","Kujawsko-pomorskie","Poland","18.01434","53.122091","1","Bydgoszcz, Poland","732.33","504","18.013398","53.122189"
"Visit Kosice","140831155939489","page_content_activity_by_country_unique","Page content activity by city_unique","2021","2","Chojnice",NULL,"Poland","1","Facebook Graph API","Point","101819363","101819363","locality","Chojnice","Pomorskie","Poland","17.569309","53.696249","1","Chojnice, Poland","835.75","580","17.569268","53.696329"
"Visit Kosice","140831155939489","page_content_activity_by_country_unique","Page content activity by city_unique","2021","2","Debica",NULL,"Poland","1","Facebook Graph API","Point","101841601","101841601","locality","Dębica","Podkarpackie","Poland","21.424158","50.056098","1","Debica, Poland","185.96","214","21.424104","50.056045"
"Visit Kosice","140831155939489","page_impressions_by_country_unique","Page impressions by city_unique","2021","2","Gdansk",NULL,"Poland","1442","Facebook Graph API","Point","101752271","101752271","locality","Gdansk","Pomorskie","Poland","18.628385","54.372781","1","Gdansk, Poland","856.89","548","18.628332","54.372772"
"Visit Kosice","140831155939489","page_content_activity_by_country_unique","Page content activity by city_unique","2021","2","Gdansk",NULL,"Poland","1","Facebook Graph API","Point","101752271","101752271","locality","Gdansk","Pomorskie","Poland","18.628385","54.372781","1","Gdansk, Poland","856.89","548","18.628332","54.372772"
"Visit Kosice","140831155939489","page_content_activity_by_country_unique","Page content activity by city_unique","2021","2","Gorzyce",NULL,"Poland","1","Facebook Graph API","Point","1477865357","1477865357","locality","Gorzyce","Podkarpackie","Poland","21.819757","50.646899","1","Gorzyce, Poland","274.24","304","21.819804","50.647339"
"Visit Kosice","140831155939489","page_impressions_by_country_unique","Page impressions by city_unique","2021","2","Katowice",NULL,"Poland","28","Facebook Graph API","Point","101752127","101752127","locality","Katowice","Silesian Voivodeship","Poland","19.015859","50.260489","1","Katowice, Poland","331.02","259","19.015849","50.260492"
"Visit Kosice","140831155939489","page_content_activity_by_country_unique","Page content activity by city_unique","2021","2","Kielce",NULL,"Poland","1","Facebook Graph API","Point","101752177","101752177","locality","Kielce","Świętokrzyskie Voivodship","Poland","20.628806","50.879655","1","Kielce, Poland","291.69","334","20.628382","50.879545"
"Visit Kosice","140831155939489","page_impressions_by_country_unique","Page impressions by city_unique","2021","2","Kielce",NULL,"Poland","36","Facebook Graph API","Point","101752177","101752177","locality","Kielce","Świętokrzyskie Voivodship","Poland","20.628806","50.879655","1","Kielce, Poland","291.69","334","20.628382","50.879545"
"Visit Kosice","140831155939489","page_content_activity_by_country_unique","Page content activity by city_unique","2021","2","Koszalin",NULL,"Poland","1","Facebook Graph API","Point","101752259","101752259","locality","Koszalin","Zachodniopomorskie","Poland","16.181078","54.195293","1","Koszalin, Poland","1049.84","655","16.181038","54.195276"
"Visit Kosice","140831155939489","page_impressions_by_country_unique","Page impressions by city_unique","2021","2","Kraków",NULL,"Poland","3069","Facebook Graph API","Point","101752117","101752117","locality","Krakow","Lesser Poland Voivodeship","Poland","19.987345","50.052652","1","Kraków, Poland","259.38","225","19.987899","50.052054"
"Visit Kosice","140831155939489","page_content_activity_by_country_unique","Page content activity by city_unique","2021","2","Kraków",NULL,"Poland","11","Facebook Graph API","Point","101752117","101752117","locality","Krakow","Lesser Poland Voivodeship","Poland","19.987345","50.052652","1","Kraków, Poland","259.38","225","19.987899","50.052054"
"Visit Kosice","140831155939489","page_content_activity_by_country_unique","Page content activity by city_unique","2021","3","Kraków",NULL,"Poland","1","Facebook Graph API","Point","101752117","101752117","locality","Krakow","Lesser Poland Voivodeship","Poland","19.987345","50.052652","1","Kraków, Poland","259.38","225","19.987899","50.052054"
"Visit Kosice","140831155939489","page_content_activity_by_country_unique","Page content activity by city_unique","2021","4","Kraków",NULL,"Poland","1","Facebook Graph API","Point","101752117","101752117","locality","Krakow","Lesser Poland Voivodeship","Poland","19.987345","50.052652","1","Kraków, Poland","259.38","225","19.987899","50.052054"
"Visit Kosice","140831155939489","page_content_activity_by_country_unique","Page content activity by city_unique","2021","2","Krosno",NULL,"Poland","1","Facebook Graph API","Point","101841515","101841515","locality","Krosno","Podkarpackie","Poland","21.760506","49.69217","1","Krosno, Poland","143.73","150","21.760685","49.691939"
"Visit Kosice","140831155939489","page_impressions_by_country_unique","Page impressions by city_unique","2021","2","Łódź",NULL,"Poland","1098","Facebook Graph API","Point","101913783","101913783","locality","Łódź","Łódź Voivodeship","Poland","19.460718","51.760932","1","Łódź, Poland","530.4","386","19.462035","51.760899"
"Visit Kosice","140831155939489","page_content_activity_by_country_unique","Page content activity by city_unique","2021","2","Łódź",NULL,"Poland","5","Facebook Graph API","Point","101913783","101913783","locality","Łódź","Łódź Voivodeship","Poland","19.460718","51.760932","1","Łódź, Poland","530.4","386","19.462035","51.760899"
"Visit Kosice","140831155939489","page_content_activity_by_country_unique","Page content activity by city_unique","2021","2","Lubin",NULL,"Poland","1","Facebook Graph API","Point","101752189","101752189","locality","Lubin","dolnoslaskie","Poland","16.199386","51.404953","1","Lubin, Poland","609.9","409","16.199916","51.405435"
"Visit Kosice","140831155939489","page_content_activity_by_country_unique","Page content activity by city_unique","2021","4","Lubin",NULL,"Poland","1","Facebook Graph API","Point","101752189","101752189","locality","Lubin","dolnoslaskie","Poland","16.199386","51.404953","1","Lubin, Poland","609.9","409","16.199916","51.405435"
"Visit Kosice","140831155939489","page_content_activity_by_country_unique","Page content activity by city_unique","2021","11","Lubin",NULL,"Poland","1","Facebook Graph API","Point","101752189","101752189","locality","Lubin","dolnoslaskie","Poland","16.199386","51.404953","1","Lubin, Poland","609.9","409","16.199916","51.405435"
"Visit Kosice","140831155939489","page_content_activity_by_country_unique","Page content activity by city_unique","2021","2","Lublin",NULL,"Poland","2","Facebook Graph API","Point","85687309","85687309","region","Lubelskie","Lubelskie","Poland","22.876588","51.254776","0.3","Lublin, Poland","403.89","361","22.876677","51.254728"
"Visit Kosice","140831155939489","page_impressions_by_country_unique","Page impressions by city_unique","2021","2","Lublin",NULL,"Poland","731","Facebook Graph API","Point","85687309","85687309","region","Lubelskie","Lubelskie","Poland","22.876588","51.254776","0.3","Lublin, Poland","403.89","361","22.876677","51.254728"
"Visit Kosice","140831155939489","page_content_activity_by_country_unique","Page content activity by city_unique","2021","2","Mielec",NULL,"Poland","1","Facebook Graph API","Point","101752163","101752163","locality","Mielec","Podkarpackie","Poland","21.435941","50.291943","1","Mielec, Poland","225.11","255","21.435953","50.291932"
"Visit Kosice","140831155939489","page_content_activity_by_country_unique","Page content activity by city_unique","2021","2","Nowy Sacz",NULL,"Poland","3","Facebook Graph API","Point","101752103","101752103","locality","Nowy Sącz","Lesser Poland Voivodeship","Poland","20.704141","49.609222","1","Nowy Sacz, Poland","136.76","142","20.704917","49.609419"
"Visit Kosice","140831155939489","page_content_activity_by_country_unique","Page content activity by city_unique","2021","4","Olsztyn",NULL,"Poland","2","Facebook Graph API","Point","101752257","101752257","locality","Olsztyn","Warmian-Masurian Voivodeship","Poland","20.494758","53.771028","1","Olsztyn, Poland","806.52","591","20.493957","53.771395"
"Visit Kosice","140831155939489","page_content_activity_by_country_unique","Page content activity by city_unique","2021","2","Opole",NULL,"Poland","1","Facebook Graph API","Point","85687313","85687313","region","Opolskie","Opolskie","Poland","17.96019","50.680581","0.3","Opole, Poland","433.32","330","17.960275","50.680597"
"Visit Kosice","140831155939489","page_content_activity_by_country_unique","Page content activity by city_unique","2021","2","Płock",NULL,"Poland","1","Facebook Graph API","Point","101752235","101752235","locality","Płock","Mazowieckie","Poland","19.702881","52.553964","1","Płock, Poland","632.69","453","19.703015","52.554157"
"Visit Kosice","140831155939489","page_impressions_by_country_unique","Page impressions by city_unique","2021","2","Poznan",NULL,"Poland","1500","Facebook Graph API","Point","101752223","101752223","locality","Poznan","Greater Poland","Poland","16.916073","52.396172","1","Poznan, Poland","708.13","467","16.917811","52.395632"
"Visit Kosice","140831155939489","page_content_activity_by_country_unique","Page content activity by city_unique","2021","2","Rybnik",NULL,"Poland","1","Facebook Graph API","Point","1175613153","1175613153","locality","Rybnik","Silesian Voivodeship","Poland","18.535946","50.086122","1","Rybnik, Poland","385.67","294","18.535484","50.086256"
"Visit Kosice","140831155939489","page_impressions_by_country_unique","Page impressions by city_unique","2021","2","Rzeszów",NULL,"Poland","180","Facebook Graph API","Point","101752145","101752145","locality","Rzeszów","Podkarpackie","Poland","21.995315","50.04016","1","Rzeszów, Poland","197.48","221","21.995221","50.040196"
"Visit Kosice","140831155939489","page_content_activity_by_country_unique","Page content activity by city_unique","2021","2","Sosnowiec",NULL,"Poland","1","Facebook Graph API","Point","101752135","101752135","locality","Sosnowiec","Silesian Voivodeship","Poland","19.116386","50.28521","1","Sosnowiec, Poland","335.19","264","19.116636","50.284558"
"Visit Kosice","140831155939489","page_content_activity_by_country_unique","Page content activity by city_unique","2021","2","Sroda Wielkopolska",NULL,"Poland","1","Facebook Graph API","Point","101820179","101820179","locality","Środa Wielkopolska","Greater Poland","Poland","17.27935","52.225915","1","Sroda Wielkopolska, Poland","717.44","481","17.279185","52.225915"
"Visit Kosice","140831155939489","page_impressions_by_country_unique","Page impressions by city_unique","2021","2","Szczecin",NULL,"Poland","814","Facebook Graph API","Point","101752779","101752779","locality","Szczecin","Zachodniopomorskie","Poland","14.54859","53.439846","1","Szczecin, Poland","898.01","580","14.548525","53.439712"
"Visit Kosice","140831155939489","page_content_activity_by_country_unique","Page content activity by city_unique","2021","10","Szczecin",NULL,"Poland","1","Facebook Graph API","Point","101752779","101752779","locality","Szczecin","Zachodniopomorskie","Poland","14.54859","53.439846","1","Szczecin, Poland","898.01","580","14.548525","53.439712"
"Visit Kosice","140831155939489","page_impressions_by_country_unique","Page impressions by city_unique","2021","11","Szczecin",NULL,"Poland","2","Facebook Graph API","Point","101752779","101752779","locality","Szczecin","Zachodniopomorskie","Poland","14.54859","53.439846","1","Szczecin, Poland","898.01","580","14.548525","53.439712"
"Visit Kosice","140831155939489","page_content_activity_by_country_unique","Page content activity by city_unique","2021","2","Torun",NULL,"Poland","1","Facebook Graph API","Point","101752241","101752241","locality","Toruń","Kujawsko-pomorskie","Poland","18.615426","53.027474","1","Torun, Poland","700.2","470","18.615213","53.0278"
"Visit Kosice","140831155939489","page_content_activity_by_country_unique","Page content activity by city_unique","2021","2","Tuchola",NULL,"Poland","1","Facebook Graph API","Point","101819299","101819299","locality","Tuchola","Kujawsko-pomorskie","Poland","17.868243","53.581126","1","Tuchola, Poland","802.46","549","17.868045","53.580949"
"Visit Kosice","140831155939489","page_content_activity_by_country_unique","Page content activity by city_unique","2021","2","Wałbrzych",NULL,"Poland","2","Facebook Graph API","Point","101752161","101752161","locality","Wałbrzych","dolnoslaskie","Poland","16.269241","50.763617","1","Wałbrzych, Poland","591.04","418","16.270362","50.764107"
"Visit Kosice","140831155939489","page_content_activity_by_country_unique","Page content activity by city_unique","2021","3","Wałbrzych",NULL,"Poland","3","Facebook Graph API","Point","101752161","101752161","locality","Wałbrzych","dolnoslaskie","Poland","16.269241","50.763617","1","Wałbrzych, Poland","591.04","418","16.270362","50.764107"
"Visit Kosice","140831155939489","page_impressions_by_country_unique","Page impressions by city_unique","2021","2","Warsaw",NULL,"Poland","5973","Facebook Graph API","Point","101752777","101752777","locality","Warsaw","Mazowieckie","Poland","21.005427","52.237695","1","Warsaw, Poland","530.91","436","21.005505","52.23761"
"Visit Kosice","140831155939489","page_content_activity_by_country_unique","Page content activity by city_unique","2021","2","Warsaw",NULL,"Poland","15","Facebook Graph API","Point","101752777","101752777","locality","Warsaw","Mazowieckie","Poland","21.005427","52.237695","1","Warsaw, Poland","530.91","436","21.005505","52.23761"
"Visit Kosice","140831155939489","page_content_activity_by_country_unique","Page content activity by city_unique","2021","3","Warsaw",NULL,"Poland","6","Facebook Graph API","Point","101752777","101752777","locality","Warsaw","Mazowieckie","Poland","21.005427","52.237695","1","Warsaw, Poland","530.91","436","21.005505","52.23761"
"Visit Kosice","140831155939489","page_content_activity_by_country_unique","Page content activity by city_unique","2021","7","Warsaw",NULL,"Poland","899","Facebook Graph API","Point","101752777","101752777","locality","Warsaw","Mazowieckie","Poland","21.005427","52.237695","1","Warsaw, Poland","530.91","436","21.005505","52.23761"
"Visit Kosice","140831155939489","page_impressions_by_country_unique","Page impressions by city_unique","2021","7","Warsaw",NULL,"Poland","899","Facebook Graph API","Point","101752777","101752777","locality","Warsaw","Mazowieckie","Poland","21.005427","52.237695","1","Warsaw, Poland","530.91","436","21.005505","52.23761"
"Visit Kosice","140831155939489","page_content_activity_by_country_unique","Page content activity by city_unique","2021","12","Warsaw",NULL,"Poland","1","Facebook Graph API","Point","101752777","101752777","locality","Warsaw","Mazowieckie","Poland","21.005427","52.237695","1","Warsaw, Poland","530.91","436","21.005505","52.23761"
"Visit Kosice","140831155939489","page_impressions_by_country_unique","Page impressions by city_unique","2021","2","Wroclaw",NULL,"Poland","1811","Facebook Graph API","Point","101752181","101752181","locality","Wrocław","dolnoslaskie","Poland","17.023978","51.097349","1","Wroclaw, Poland","519.32","361","17.024479","51.097117"
"Visit Kosice","140831155939489","page_content_activity_by_country_unique","Page content activity by city_unique","2021","2","Wroclaw",NULL,"Poland","6","Facebook Graph API","Point","101752181","101752181","locality","Wrocław","dolnoslaskie","Poland","17.023978","51.097349","1","Wroclaw, Poland","519.32","361","17.024479","51.097117"
"Visit Kosice","140831155939489","page_content_activity_by_country_unique","Page content activity by city_unique","2021","2","Wykroty",NULL,"Poland","1","Facebook Graph API","Point","101848079","101848079","locality","Wykroty","dolnoslaskie","Poland","15.276526","51.23063","1","Wykroty, Poland","653.36","433","15.276227","51.230216"
"Visit Kosice","140831155939489","page_content_activity_by_country_unique","Page content activity by city_unique","2021","3","Zary",NULL,"Poland","1","Facebook Graph API","Point","101821417","101821417","locality","Żary","Lubuskie","Poland","15.136787","51.636647","1","Zary, Poland","677.14","460","15.136864","51.63683"
"Visit Kosice","140831155939489","page_content_activity_by_country_unique","Page content activity by city_unique","2021","4","Zary",NULL,"Poland","2","Facebook Graph API","Point","101821417","101821417","locality","Żary","Lubuskie","Poland","15.136787","51.636647","1","Zary, Poland","677.14","460","15.136864","51.63683"
"Visit Kosice","140831155939489","page_content_activity_by_country_unique","Page content activity by city_unique","2021","2","Zgorzelec",NULL,"Poland","1","Facebook Graph API","Point","101756605","101756605","locality","Zgorzelec","dolnoslaskie","Poland","15.010363","51.147674","1","Zgorzelec, Poland","667.37","439","15.010859","51.147525"
"Visit Kosice","140831155939489","page_content_activity_by_country_unique","Page content activity by city_unique","2021","1","Babiná",NULL,"Slovakia","1","Facebook Graph API","Point","1277078327","1277078327","locality","Babina","Banska Bystrica","Slovakia","19.09106","48.4352","1","Babiná, Slovakia","282.89","208","19.091","48.435139"
"Visit Kosice","140831155939489","page_content_activity_by_country_unique","Page content activity by city_unique","2021","2","Babiná",NULL,"Slovakia","3","Facebook Graph API","Point","1277078327","1277078327","locality","Babina","Banska Bystrica","Slovakia","19.09106","48.4352","1","Babiná, Slovakia","282.89","208","19.091","48.435139"
"Visit Kosice","140831155939489","page_content_activity_by_country_unique","Page content activity by city_unique","2021","10","Babiná",NULL,"Slovakia","1","Facebook Graph API","Point","1277078327","1277078327","locality","Babina","Banska Bystrica","Slovakia","19.09106","48.4352","1","Babiná, Slovakia","282.89","208","19.091","48.435139"
"Visit Kosice","140831155939489","page_content_activity_by_country_unique","Page content activity by city_unique","2021","3","Backov",NULL,"Slovakia","1","Facebook Graph API","Point","1343470327","1343470327","locality","Backov","Kosice","Slovakia","21.62321","48.73991","1","Backov, Slovakia","34.38","39","21.623098","48.739619"
"Visit Kosice","140831155939489","page_content_activity_by_country_unique","Page content activity by city_unique","2021","4","Backov",NULL,"Slovakia","3","Facebook Graph API","Point","1343470327","1343470327","locality","Backov","Kosice","Slovakia","21.62321","48.73991","1","Backov, Slovakia","34.38","39","21.623098","48.739619"
"Visit Kosice","140831155939489","page_content_activity_by_country_unique","Page content activity by city_unique","2021","3","Bajany",NULL,"Slovakia","1","Facebook Graph API","Point","1360192015","1360192015","locality","Bajany","Kosice","Slovakia","22.10878","48.60259","1","Bajany, Slovakia","82.35","84","22.109614","48.602603"
"Visit Kosice","140831155939489","page_content_activity_by_country_unique","Page content activity by city_unique","2021","2","Banovce",NULL,"Slovakia","1","Facebook Graph API","Point","101781619","101781619","locality","Bánovce nad Bebravou","Trenciansky kraj","Slovakia","18.257796","48.720282","1","Banovce, Slovakia","316.78","257","18.257345","48.720007"
"Visit Kosice","140831155939489","page_content_activity_by_country_unique","Page content activity by city_unique","2021","1","Bánovce nad Bebravou",NULL,"Slovakia","24","Facebook Graph API","Point","101781619","101781619","locality","Bánovce nad Bebravou","Trenciansky kraj","Slovakia","18.257796","48.720282","1","Bánovce nad Bebravou, Slovakia","316.78","257","18.257345","48.720007"
"Visit Kosice","140831155939489","page_impressions_by_country_unique","Page impressions by city_unique","2021","2","Bánovce nad Bebravou",NULL,"Slovakia","260","Facebook Graph API","Point","101781619","101781619","locality","Bánovce nad Bebravou","Trenciansky kraj","Slovakia","18.257796","48.720282","1","Bánovce nad Bebravou, Slovakia","316.78","257","18.257345","48.720007"
"Visit Kosice","140831155939489","page_content_activity_by_country_unique","Page content activity by city_unique","2021","2","Bánovce nad Bebravou",NULL,"Slovakia","11","Facebook Graph API","Point","101781619","101781619","locality","Bánovce nad Bebravou","Trenciansky kraj","Slovakia","18.257796","48.720282","1","Bánovce nad Bebravou, Slovakia","316.78","257","18.257345","48.720007"
"Visit Kosice","140831155939489","page_content_activity_by_country_unique","Page content activity by city_unique","2021","3","Bánovce nad Bebravou",NULL,"Slovakia","2","Facebook Graph API","Point","101781619","101781619","locality","Bánovce nad Bebravou","Trenciansky kraj","Slovakia","18.257796","48.720282","1","Bánovce nad Bebravou, Slovakia","316.78","257","18.257345","48.720007"
"Visit Kosice","140831155939489","page_impressions_by_country_unique","Page impressions by city_unique","2021","3","Bánovce nad Bebravou",NULL,"Slovakia","22","Facebook Graph API","Point","101781619","101781619","locality","Bánovce nad Bebravou","Trenciansky kraj","Slovakia","18.257796","48.720282","1","Bánovce nad Bebravou, Slovakia","316.78","257","18.257345","48.720007"
"Visit Kosice","140831155939489","page_content_activity_by_country_unique","Page content activity by city_unique","2021","4","Bánovce nad Bebravou",NULL,"Slovakia","2","Facebook Graph API","Point","101781619","101781619","locality","Bánovce nad Bebravou","Trenciansky kraj","Slovakia","18.257796","48.720282","1","Bánovce nad Bebravou, Slovakia","316.78","257","18.257345","48.720007"
"Visit Kosice","140831155939489","page_impressions_by_country_unique","Page impressions by city_unique","2021","4","Bánovce nad Bebravou",NULL,"Slovakia","3","Facebook Graph API","Point","101781619","101781619","locality","Bánovce nad Bebravou","Trenciansky kraj","Slovakia","18.257796","48.720282","1","Bánovce nad Bebravou, Slovakia","316.78","257","18.257345","48.720007"
"Visit Kosice","140831155939489","page_impressions_by_country_unique","Page impressions by city_unique","2021","5","Bánovce nad Bebravou",NULL,"Slovakia","192","Facebook Graph API","Point","101781619","101781619","locality","Bánovce nad Bebravou","Trenciansky kraj","Slovakia","18.257796","48.720282","1","Bánovce nad Bebravou, Slovakia","316.78","257","18.257345","48.720007"
"Visit Kosice","140831155939489","page_content_activity_by_country_unique","Page content activity by city_unique","2021","5","Bánovce nad Bebravou",NULL,"Slovakia","192","Facebook Graph API","Point","101781619","101781619","locality","Bánovce nad Bebravou","Trenciansky kraj","Slovakia","18.257796","48.720282","1","Bánovce nad Bebravou, Slovakia","316.78","257","18.257345","48.720007"
"Visit Kosice","140831155939489","page_content_activity_by_country_unique","Page content activity by city_unique","2021","6","Bánovce nad Bebravou",NULL,"Slovakia","380","Facebook Graph API","Point","101781619","101781619","locality","Bánovce nad Bebravou","Trenciansky kraj","Slovakia","18.257796","48.720282","1","Bánovce nad Bebravou, Slovakia","316.78","257","18.257345","48.720007"
"Visit Kosice","140831155939489","page_impressions_by_country_unique","Page impressions by city_unique","2021","6","Bánovce nad Bebravou",NULL,"Slovakia","380","Facebook Graph API","Point","101781619","101781619","locality","Bánovce nad Bebravou","Trenciansky kraj","Slovakia","18.257796","48.720282","1","Bánovce nad Bebravou, Slovakia","316.78","257","18.257345","48.720007"
"Visit Kosice","140831155939489","page_impressions_by_country_unique","Page impressions by city_unique","2021","7","Bánovce nad Bebravou",NULL,"Slovakia","6084","Facebook Graph API","Point","101781619","101781619","locality","Bánovce nad Bebravou","Trenciansky kraj","Slovakia","18.257796","48.720282","1","Bánovce nad Bebravou, Slovakia","316.78","257","18.257345","48.720007"
"Visit Kosice","140831155939489","page_content_activity_by_country_unique","Page content activity by city_unique","2021","7","Bánovce nad Bebravou",NULL,"Slovakia","6084","Facebook Graph API","Point","101781619","101781619","locality","Bánovce nad Bebravou","Trenciansky kraj","Slovakia","18.257796","48.720282","1","Bánovce nad Bebravou, Slovakia","316.78","257","18.257345","48.720007"
"Visit Kosice","140831155939489","page_impressions_by_country_unique","Page impressions by city_unique","2021","8","Bánovce nad Bebravou",NULL,"Slovakia","641","Facebook Graph API","Point","101781619","101781619","locality","Bánovce nad Bebravou","Trenciansky kraj","Slovakia","18.257796","48.720282","1","Bánovce nad Bebravou, Slovakia","316.78","257","18.257345","48.720007"
"Visit Kosice","140831155939489","page_content_activity_by_country_unique","Page content activity by city_unique","2021","8","Bánovce nad Bebravou",NULL,"Slovakia","641","Facebook Graph API","Point","101781619","101781619","locality","Bánovce nad Bebravou","Trenciansky kraj","Slovakia","18.257796","48.720282","1","Bánovce nad Bebravou, Slovakia","316.78","257","18.257345","48.720007"
"Visit Kosice","140831155939489","page_content_activity_by_country_unique","Page content activity by city_unique","2021","9","Bánovce nad Bebravou",NULL,"Slovakia","8","Facebook Graph API","Point","101781619","101781619","locality","Bánovce nad Bebravou","Trenciansky kraj","Slovakia","18.257796","48.720282","1","Bánovce nad Bebravou, Slovakia","316.78","257","18.257345","48.720007"
"Visit Kosice","140831155939489","page_impressions_by_country_unique","Page impressions by city_unique","2021","9","Bánovce nad Bebravou",NULL,"Slovakia","953","Facebook Graph API","Point","101781619","101781619","locality","Bánovce nad Bebravou","Trenciansky kraj","Slovakia","18.257796","48.720282","1","Bánovce nad Bebravou, Slovakia","316.78","257","18.257345","48.720007"
"Visit Kosice","140831155939489","page_content_activity_by_country_unique","Page content activity by city_unique","2021","10","Bánovce nad Bebravou",NULL,"Slovakia","4","Facebook Graph API","Point","101781619","101781619","locality","Bánovce nad Bebravou","Trenciansky kraj","Slovakia","18.257796","48.720282","1","Bánovce nad Bebravou, Slovakia","316.78","257","18.257345","48.720007"
"Visit Kosice","140831155939489","page_impressions_by_country_unique","Page impressions by city_unique","2021","11","Bánovce nad Bebravou",NULL,"Slovakia","36","Facebook Graph API","Point","101781619","101781619","locality","Bánovce nad Bebravou","Trenciansky kraj","Slovakia","18.257796","48.720282","1","Bánovce nad Bebravou, Slovakia","316.78","257","18.257345","48.720007"
"Visit Kosice","140831155939489","page_content_activity_by_country_unique","Page content activity by city_unique","2021","11","Bánovce nad Bebravou",NULL,"Slovakia","6","Facebook Graph API","Point","101781619","101781619","locality","Bánovce nad Bebravou","Trenciansky kraj","Slovakia","18.257796","48.720282","1","Bánovce nad Bebravou, Slovakia","316.78","257","18.257345","48.720007"
"Visit Kosice","140831155939489","page_impressions_by_country_unique","Page impressions by city_unique","2021","12","Bánovce nad Bebravou",NULL,"Slovakia","71","Facebook Graph API","Point","101781619","101781619","locality","Bánovce nad Bebravou","Trenciansky kraj","Slovakia","18.257796","48.720282","1","Bánovce nad Bebravou, Slovakia","316.78","257","18.257345","48.720007"
"Visit Kosice","140831155939489","page_content_activity_by_country_unique","Page content activity by city_unique","2021","12","Bánovce nad Bebravou",NULL,"Slovakia","27","Facebook Graph API","Point","101781619","101781619","locality","Bánovce nad Bebravou","Trenciansky kraj","Slovakia","18.257796","48.720282","1","Bánovce nad Bebravou, Slovakia","316.78","257","18.257345","48.720007"
"Visit Kosice","140831155939489","page_content_activity_by_country_unique","Page content activity by city_unique","2021","6","Banská Belá",NULL,"Slovakia","1","Facebook Graph API","Point","101782747","101782747","locality","Banská Belá","Banska Bystrica","Slovakia","18.934663","48.475173","1","Banská Belá, Slovakia","278.72","199","18.934584","48.47491"
"Visit Kosice","140831155939489","page_impressions_by_country_unique","Page impressions by city_unique","2021","6","Banská Belá",NULL,"Slovakia","1","Facebook Graph API","Point","101782747","101782747","locality","Banská Belá","Banska Bystrica","Slovakia","18.934663","48.475173","1","Banská Belá, Slovakia","278.72","199","18.934584","48.47491"
"Visit Kosice","140831155939489","page_content_activity_by_country_unique","Page content activity by city_unique","2021","11","Banská Belá",NULL,"Slovakia","1","Facebook Graph API","Point","101782747","101782747","locality","Banská Belá","Banska Bystrica","Slovakia","18.934663","48.475173","1","Banská Belá, Slovakia","278.72","199","18.934584","48.47491"
"Visit Kosice","140831155939489","page_content_activity_by_country_unique","Page content activity by city_unique","2021","1","Banská Bystrica",NULL,"Slovakia","132","Facebook Graph API","Point","101752053","101752053","locality","Banska Bystrica","Banska Bystrica","Slovakia","19.123895","48.732701","1","Banská Bystrica, Slovakia","240.39","178","19.123647","48.732507"
"Visit Kosice","140831155939489","page_impressions_by_country_unique","Page impressions by city_unique","2021","1","Banská Bystrica",NULL,"Slovakia","5063","Facebook Graph API","Point","101752053","101752053","locality","Banska Bystrica","Banska Bystrica","Slovakia","19.123895","48.732701","1","Banská Bystrica, Slovakia","240.39","178","19.123647","48.732507"
"Visit Kosice","140831155939489","page_impressions_by_country_unique","Page impressions by city_unique","2021","2","Banská Bystrica",NULL,"Slovakia","5037","Facebook Graph API","Point","101752053","101752053","locality","Banska Bystrica","Banska Bystrica","Slovakia","19.123895","48.732701","1","Banská Bystrica, Slovakia","240.39","178","19.123647","48.732507"
"Visit Kosice","140831155939489","page_content_activity_by_country_unique","Page content activity by city_unique","2021","2","Banská Bystrica",NULL,"Slovakia","77","Facebook Graph API","Point","101752053","101752053","locality","Banska Bystrica","Banska Bystrica","Slovakia","19.123895","48.732701","1","Banská Bystrica, Slovakia","240.39","178","19.123647","48.732507"
"Visit Kosice","140831155939489","page_content_activity_by_country_unique","Page content activity by city_unique","2021","3","Banská Bystrica",NULL,"Slovakia","32","Facebook Graph API","Point","101752053","101752053","locality","Banska Bystrica","Banska Bystrica","Slovakia","19.123895","48.732701","1","Banská Bystrica, Slovakia","240.39","178","19.123647","48.732507"
"Visit Kosice","140831155939489","page_impressions_by_country_unique","Page impressions by city_unique","2021","3","Banská Bystrica",NULL,"Slovakia","2670","Facebook Graph API","Point","101752053","101752053","locality","Banska Bystrica","Banska Bystrica","Slovakia","19.123895","48.732701","1","Banská Bystrica, Slovakia","240.39","178","19.123647","48.732507"
"Visit Kosice","140831155939489","page_impressions_by_country_unique","Page impressions by city_unique","2021","4","Banská Bystrica",NULL,"Slovakia","6023","Facebook Graph API","Point","101752053","101752053","locality","Banska Bystrica","Banska Bystrica","Slovakia","19.123895","48.732701","1","Banská Bystrica, Slovakia","240.39","178","19.123647","48.732507"
"Visit Kosice","140831155939489","page_content_activity_by_country_unique","Page content activity by city_unique","2021","4","Banská Bystrica",NULL,"Slovakia","53","Facebook Graph API","Point","101752053","101752053","locality","Banska Bystrica","Banska Bystrica","Slovakia","19.123895","48.732701","1","Banská Bystrica, Slovakia","240.39","178","19.123647","48.732507"
"Visit Kosice","140831155939489","page_impressions_by_country_unique","Page impressions by city_unique","2021","5","Banská Bystrica",NULL,"Slovakia","2791","Facebook Graph API","Point","101752053","101752053","locality","Banska Bystrica","Banska Bystrica","Slovakia","19.123895","48.732701","1","Banská Bystrica, Slovakia","240.39","178","19.123647","48.732507"
"Visit Kosice","140831155939489","page_content_activity_by_country_unique","Page content activity by city_unique","2021","5","Banská Bystrica",NULL,"Slovakia","2791","Facebook Graph API","Point","101752053","101752053","locality","Banska Bystrica","Banska Bystrica","Slovakia","19.123895","48.732701","1","Banská Bystrica, Slovakia","240.39","178","19.123647","48.732507"
"Visit Kosice","140831155939489","page_impressions_by_country_unique","Page impressions by city_unique","2021","6","Banská Bystrica",NULL,"Slovakia","18088","Facebook Graph API","Point","101752053","101752053","locality","Banska Bystrica","Banska Bystrica","Slovakia","19.123895","48.732701","1","Banská Bystrica, Slovakia","240.39","178","19.123647","48.732507"
"Visit Kosice","140831155939489","page_content_activity_by_country_unique","Page content activity by city_unique","2021","6","Banská Bystrica",NULL,"Slovakia","18088","Facebook Graph API","Point","101752053","101752053","locality","Banska Bystrica","Banska Bystrica","Slovakia","19.123895","48.732701","1","Banská Bystrica, Slovakia","240.39","178","19.123647","48.732507"
"Visit Kosice","140831155939489","page_impressions_by_country_unique","Page impressions by city_unique","2021","7","Banská Bystrica",NULL,"Slovakia","59248","Facebook Graph API","Point","101752053","101752053","locality","Banska Bystrica","Banska Bystrica","Slovakia","19.123895","48.732701","1","Banská Bystrica, Slovakia","240.39","178","19.123647","48.732507"
"Visit Kosice","140831155939489","page_content_activity_by_country_unique","Page content activity by city_unique","2021","7","Banská Bystrica",NULL,"Slovakia","59248","Facebook Graph API","Point","101752053","101752053","locality","Banska Bystrica","Banska Bystrica","Slovakia","19.123895","48.732701","1","Banská Bystrica, Slovakia","240.39","178","19.123647","48.732507"
"Visit Kosice","140831155939489","page_impressions_by_country_unique","Page impressions by city_unique","2021","8","Banská Bystrica",NULL,"Slovakia","27495","Facebook Graph API","Point","101752053","101752053","locality","Banska Bystrica","Banska Bystrica","Slovakia","19.123895","48.732701","1","Banská Bystrica, Slovakia","240.39","178","19.123647","48.732507"
"Visit Kosice","140831155939489","page_content_activity_by_country_unique","Page content activity by city_unique","2021","8","Banská Bystrica",NULL,"Slovakia","27495","Facebook Graph API","Point","101752053","101752053","locality","Banska Bystrica","Banska Bystrica","Slovakia","19.123895","48.732701","1","Banská Bystrica, Slovakia","240.39","178","19.123647","48.732507"
"Visit Kosice","140831155939489","page_content_activity_by_country_unique","Page content activity by city_unique","2021","9","Banská Bystrica",NULL,"Slovakia","277","Facebook Graph API","Point","101752053","101752053","locality","Banska Bystrica","Banska Bystrica","Slovakia","19.123895","48.732701","1","Banská Bystrica, Slovakia","240.39","178","19.123647","48.732507"
"Visit Kosice","140831155939489","page_impressions_by_country_unique","Page impressions by city_unique","2021","9","Banská Bystrica",NULL,"Slovakia","37992","Facebook Graph API","Point","101752053","101752053","locality","Banska Bystrica","Banska Bystrica","Slovakia","19.123895","48.732701","1","Banská Bystrica, Slovakia","240.39","178","19.123647","48.732507"
"Visit Kosice","140831155939489","page_impressions_by_country_unique","Page impressions by city_unique","2021","10","Banská Bystrica",NULL,"Slovakia","11129","Facebook Graph API","Point","101752053","101752053","locality","Banska Bystrica","Banska Bystrica","Slovakia","19.123895","48.732701","1","Banská Bystrica, Slovakia","240.39","178","19.123647","48.732507"
"Visit Kosice","140831155939489","page_content_activity_by_country_unique","Page content activity by city_unique","2021","10","Banská Bystrica",NULL,"Slovakia","117","Facebook Graph API","Point","101752053","101752053","locality","Banska Bystrica","Banska Bystrica","Slovakia","19.123895","48.732701","1","Banská Bystrica, Slovakia","240.39","178","19.123647","48.732507"
"Visit Kosice","140831155939489","page_impressions_by_country_unique","Page impressions by city_unique","2021","11","Banská Bystrica",NULL,"Slovakia","2021","Facebook Graph API","Point","101752053","101752053","locality","Banska Bystrica","Banska Bystrica","Slovakia","19.123895","48.732701","1","Banská Bystrica, Slovakia","240.39","178","19.123647","48.732507"
"Visit Kosice","140831155939489","page_content_activity_by_country_unique","Page content activity by city_unique","2021","11","Banská Bystrica",NULL,"Slovakia","161","Facebook Graph API","Point","101752053","101752053","locality","Banska Bystrica","Banska Bystrica","Slovakia","19.123895","48.732701","1","Banská Bystrica, Slovakia","240.39","178","19.123647","48.732507"
"Visit Kosice","140831155939489","page_content_activity_by_country_unique","Page content activity by city_unique","2021","12","Banská Bystrica",NULL,"Slovakia","134","Facebook Graph API","Point","101752053","101752053","locality","Banska Bystrica","Banska Bystrica","Slovakia","19.123895","48.732701","1","Banská Bystrica, Slovakia","240.39","178","19.123647","48.732507"
"Visit Kosice","140831155939489","page_impressions_by_country_unique","Page impressions by city_unique","2021","12","Banská Bystrica",NULL,"Slovakia","1943","Facebook Graph API","Point","101752053","101752053","locality","Banska Bystrica","Banska Bystrica","Slovakia","19.123895","48.732701","1","Banská Bystrica, Slovakia","240.39","178","19.123647","48.732507"
"Visit Kosice","140831155939489","page_content_activity_by_country_unique","Page content activity by city_unique","2021","1","Banska Stiavnica",NULL,"Slovakia","24","Facebook Graph API","Point","101782751","101782751","locality","Banská Štiavnica","Banska Bystrica","Slovakia","18.899561","48.458099","1","Banska Stiavnica, Slovakia","283.26","206","18.89979","48.458254"
"Visit Kosice","140831155939489","page_impressions_by_country_unique","Page impressions by city_unique","2021","1","Banska Stiavnica",NULL,"Slovakia","460","Facebook Graph API","Point","101782751","101782751","locality","Banská Štiavnica","Banska Bystrica","Slovakia","18.899561","48.458099","1","Banska Stiavnica, Slovakia","283.26","206","18.89979","48.458254"
"Visit Kosice","140831155939489","page_content_activity_by_country_unique","Page content activity by city_unique","2021","4","Banska Stiavnica",NULL,"Slovakia","21","Facebook Graph API","Point","101782751","101782751","locality","Banská Štiavnica","Banska Bystrica","Slovakia","18.899561","48.458099","1","Banska Stiavnica, Slovakia","283.26","206","18.89979","48.458254"
"Visit Kosice","140831155939489","page_content_activity_by_country_unique","Page content activity by city_unique","2021","5","Banska Stiavnica",NULL,"Slovakia","23","Facebook Graph API","Point","101782751","101782751","locality","Banská Štiavnica","Banska Bystrica","Slovakia","18.899561","48.458099","1","Banska Stiavnica, Slovakia","283.26","206","18.89979","48.458254"
"Visit Kosice","140831155939489","page_impressions_by_country_unique","Page impressions by city_unique","2021","5","Banska Stiavnica",NULL,"Slovakia","23","Facebook Graph API","Point","101782751","101782751","locality","Banská Štiavnica","Banska Bystrica","Slovakia","18.899561","48.458099","1","Banska Stiavnica, Slovakia","283.26","206","18.89979","48.458254"
"Visit Kosice","140831155939489","page_content_activity_by_country_unique","Page content activity by city_unique","2021","6","Banska Stiavnica",NULL,"Slovakia","10","Facebook Graph API","Point","101782751","101782751","locality","Banská Štiavnica","Banska Bystrica","Slovakia","18.899561","48.458099","1","Banska Stiavnica, Slovakia","283.26","206","18.89979","48.458254"
"Visit Kosice","140831155939489","page_impressions_by_country_unique","Page impressions by city_unique","2021","6","Banska Stiavnica",NULL,"Slovakia","10","Facebook Graph API","Point","101782751","101782751","locality","Banská Štiavnica","Banska Bystrica","Slovakia","18.899561","48.458099","1","Banska Stiavnica, Slovakia","283.26","206","18.89979","48.458254"
"Visit Kosice","140831155939489","page_content_activity_by_country_unique","Page content activity by city_unique","2021","9","Banska Stiavnica",NULL,"Slovakia","2","Facebook Graph API","Point","101782751","101782751","locality","Banská Štiavnica","Banska Bystrica","Slovakia","18.899561","48.458099","1","Banska Stiavnica, Slovakia","283.26","206","18.89979","48.458254"
"Visit Kosice","140831155939489","page_content_activity_by_country_unique","Page content activity by city_unique","2021","10","Banska Stiavnica",NULL,"Slovakia","1","Facebook Graph API","Point","101782751","101782751","locality","Banská Štiavnica","Banska Bystrica","Slovakia","18.899561","48.458099","1","Banska Stiavnica, Slovakia","283.26","206","18.89979","48.458254"
"Visit Kosice","140831155939489","page_impressions_by_country_unique","Page impressions by city_unique","2021","11","Banska Stiavnica",NULL,"Slovakia","90","Facebook Graph API","Point","101782751","101782751","locality","Banská Štiavnica","Banska Bystrica","Slovakia","18.899561","48.458099","1","Banska Stiavnica, Slovakia","283.26","206","18.89979","48.458254"
"Visit Kosice","140831155939489","page_impressions_by_country_unique","Page impressions by city_unique","2021","12","Banska Stiavnica",NULL,"Slovakia","70","Facebook Graph API","Point","101782751","101782751","locality","Banská Štiavnica","Banska Bystrica","Slovakia","18.899561","48.458099","1","Banska Stiavnica, Slovakia","283.26","206","18.89979","48.458254"
"Visit Kosice","140831155939489","page_content_activity_by_country_unique","Page content activity by city_unique","2021","4","Barca",NULL,"Slovakia","5","Facebook Graph API","Point","1260094255","1260094255","locality","Barca","Banska Bystrica","Slovakia","20.23035","48.37451","1","Barca, Slovakia","114.85","111","20.229999","48.374583"
"Visit Kosice","140831155939489","page_impressions_by_country_unique","Page impressions by city_unique","2021","1","Bardejov",NULL,"Slovakia","5446","Facebook Graph API","Point","101780611","101780611","locality","Bardejov","Presov","Slovakia","21.272001","49.292691","1","Bardejov, Slovakia","76.71","75","21.271999","49.292677"
